{
"type": "FeatureCollection",
"name": "academy",
"crs": { "type": "name", "properties": { "name": "urn:ogc:def:crs:OGC:1.3:CRS84" } },
"features": [
{ "type": "Feature", "properties": { "uuid": 0, "name": "중앙보습학원", "lon": 126.9906421, "lat": 37.4919951 }, "geometry": { "type": "Point", "coordinates": [ 126.9906421, 37.4919951 ] } },
{ "type": "Feature", "properties": { "uuid": 1, "name": "동신보습학원", "lon": 127.0087483, "lat": 37.4884541 }, "geometry": { "type": "Point", "coordinates": [ 127.0087483, 37.4884541 ] } },
{ "type": "Feature", "properties": { "uuid": 2, "name": "엘브라운의대관학원", "lon": 127.0021861, "lat": 37.5057261 }, "geometry": { "type": "Point", "coordinates": [ 127.0021861, 37.5057261 ] } },
{ "type": "Feature", "properties": { "uuid": 3, "name": "광지독서실", "lon": 126.9874334, "lat": 37.5026721 }, "geometry": { "type": "Point", "coordinates": [ 126.9874334, 37.5026721 ] } },
{ "type": "Feature", "properties": { "uuid": 4, "name": "예신음악학원", "lon": 127.0009618, "lat": 37.4770714 }, "geometry": { "type": "Point", "coordinates": [ 127.0009618, 37.4770714 ] } },
{ "type": "Feature", "properties": { "uuid": 5, "name": "잔디음악학원", "lon": 126.9962507, "lat": 37.486105 }, "geometry": { "type": "Point", "coordinates": [ 126.9962507, 37.486105 ] } },
{ "type": "Feature", "properties": { "uuid": 6, "name": "스터디하우스잠원독서실", "lon": 127.0115158, "lat": 37.5144095 }, "geometry": { "type": "Point", "coordinates": [ 127.0115158, 37.5144095 ] } },
{ "type": "Feature", "properties": { "uuid": 7, "name": "피앤피아카데미(P&P Academy)학원", "lon": 126.9845826, "lat": 37.4910332 }, "geometry": { "type": "Point", "coordinates": [ 126.9845826, 37.4910332 ] } },
{ "type": "Feature", "properties": { "uuid": 8, "name": "하수꽃꽂이학원", "lon": 127.0478397, "lat": 37.4741606 }, "geometry": { "type": "Point", "coordinates": [ 127.0478397, 37.4741606 ] } },
{ "type": "Feature", "properties": { "uuid": 9, "name": "국제컴퓨터학원", "lon": 127.0241085, "lat": 37.5020257 }, "geometry": { "type": "Point", "coordinates": [ 127.0241085, 37.5020257 ] } },
{ "type": "Feature", "properties": { "uuid": 10, "name": "잠원수도컴퓨터학원", "lon": 127.0115158, "lat": 37.5144095 }, "geometry": { "type": "Point", "coordinates": [ 127.0115158, 37.5144095 ] } },
{ "type": "Feature", "properties": { "uuid": 11, "name": "가나어학학원", "lon": 127.0055318, "lat": 37.5067454 }, "geometry": { "type": "Point", "coordinates": [ 127.0055318, 37.5067454 ] } },
{ "type": "Feature", "properties": { "uuid": 12, "name": "서초그린섬미술학원", "lon": 126.9972242, "lat": 37.4826442 }, "geometry": { "type": "Point", "coordinates": [ 126.9972242, 37.4826442 ] } },
{ "type": "Feature", "properties": { "uuid": 13, "name": "리즈음악학원", "lon": 127.0174633, "lat": 37.4999252 }, "geometry": { "type": "Point", "coordinates": [ 127.0174633, 37.4999252 ] } },
{ "type": "Feature", "properties": { "uuid": 14, "name": "서원음악학원", "lon": 127.0087853, "lat": 37.5010511 }, "geometry": { "type": "Point", "coordinates": [ 127.0087853, 37.5010511 ] } },
{ "type": "Feature", "properties": { "uuid": 15, "name": "아이캔보습학원", "lon": 126.9874554, "lat": 37.4951846 }, "geometry": { "type": "Point", "coordinates": [ 126.9874554, 37.4951846 ] } },
{ "type": "Feature", "properties": { "uuid": 16, "name": "수이지수학전문학원", "lon": 127.0154635, "lat": 37.5178575 }, "geometry": { "type": "Point", "coordinates": [ 127.0154635, 37.5178575 ] } },
{ "type": "Feature", "properties": { "uuid": 17, "name": "신동아학원", "lon": 127.0014497, "lat": 37.4811843 }, "geometry": { "type": "Point", "coordinates": [ 127.0014497, 37.4811843 ] } },
{ "type": "Feature", "properties": { "uuid": 18, "name": "예일보습학원", "lon": 127.0198985, "lat": 37.490124 }, "geometry": { "type": "Point", "coordinates": [ 127.0198985, 37.490124 ] } },
{ "type": "Feature", "properties": { "uuid": 19, "name": "박컴학원", "lon": 127.009821, "lat": 37.4894273 }, "geometry": { "type": "Point", "coordinates": [ 127.009821, 37.4894273 ] } },
{ "type": "Feature", "properties": { "uuid": 20, "name": "준암보습학원", "lon": 126.993386, "lat": 37.488928 }, "geometry": { "type": "Point", "coordinates": [ 126.993386, 37.488928 ] } },
{ "type": "Feature", "properties": { "uuid": 21, "name": "제일진성보습학원", "lon": 127.0447812, "lat": 37.4728564 }, "geometry": { "type": "Point", "coordinates": [ 127.0447812, 37.4728564 ] } },
{ "type": "Feature", "properties": { "uuid": 22, "name": "란음악학원", "lon": 126.9975306, "lat": 37.4977845 }, "geometry": { "type": "Point", "coordinates": [ 126.9975306, 37.4977845 ] } },
{ "type": "Feature", "properties": { "uuid": 23, "name": "박정어학원", "lon": 127.0154692, "lat": 37.4924479 }, "geometry": { "type": "Point", "coordinates": [ 127.0154692, 37.4924479 ] } },
{ "type": "Feature", "properties": { "uuid": 24, "name": "이든음악학원", "lon": 127.0322158, "lat": 37.4749978 }, "geometry": { "type": "Point", "coordinates": [ 127.0322158, 37.4749978 ] } },
{ "type": "Feature", "properties": { "uuid": 25, "name": "시온음악학원", "lon": 127.0071774, "lat": 37.4824039 }, "geometry": { "type": "Point", "coordinates": [ 127.0071774, 37.4824039 ] } },
{ "type": "Feature", "properties": { "uuid": 26, "name": "녹지미술학원", "lon": 126.9989078, "lat": 37.4801806 }, "geometry": { "type": "Point", "coordinates": [ 126.9989078, 37.4801806 ] } },
{ "type": "Feature", "properties": { "uuid": 27, "name": "탑클래스독서실", "lon": 127.0143407, "lat": 37.5197943 }, "geometry": { "type": "Point", "coordinates": [ 127.0143407, 37.5197943 ] } },
{ "type": "Feature", "properties": { "uuid": 28, "name": "한국회계학원", "lon": 127.0142486, "lat": 37.4923927 }, "geometry": { "type": "Point", "coordinates": [ 127.0142486, 37.4923927 ] } },
{ "type": "Feature", "properties": { "uuid": 29, "name": "서울애완동물관리학원", "lon": 127.0381159, "lat": 37.4848224 }, "geometry": { "type": "Point", "coordinates": [ 127.0381159, 37.4848224 ] } },
{ "type": "Feature", "properties": { "uuid": 30, "name": "행원독서실", "lon": 126.9897876, "lat": 37.4756788 }, "geometry": { "type": "Point", "coordinates": [ 126.9897876, 37.4756788 ] } },
{ "type": "Feature", "properties": { "uuid": 31, "name": "양재왕수학보습학원", "lon": 127.0253957, "lat": 37.4708599 }, "geometry": { "type": "Point", "coordinates": [ 127.0253957, 37.4708599 ] } },
{ "type": "Feature", "properties": { "uuid": 32, "name": "연세아카데미학원", "lon": 127.0250988, "lat": 37.4710827 }, "geometry": { "type": "Point", "coordinates": [ 127.0250988, 37.4710827 ] } },
{ "type": "Feature", "properties": { "uuid": 33, "name": "방배학원", "lon": 126.9996005, "lat": 37.4799612 }, "geometry": { "type": "Point", "coordinates": [ 126.9996005, 37.4799612 ] } },
{ "type": "Feature", "properties": { "uuid": 34, "name": "리드유(Leadu)영어학원", "lon": 127.0112172, "lat": 37.5010265 }, "geometry": { "type": "Point", "coordinates": [ 127.0112172, 37.5010265 ] } },
{ "type": "Feature", "properties": { "uuid": 35, "name": "피에스에이서초어학학원", "lon": 127.0263437, "lat": 37.4875372 }, "geometry": { "type": "Point", "coordinates": [ 127.0263437, 37.4875372 ] } },
{ "type": "Feature", "properties": { "uuid": 36, "name": "서초제일보습학원", "lon": 127.0218698, "lat": 37.4846349 }, "geometry": { "type": "Point", "coordinates": [ 127.0218698, 37.4846349 ] } },
{ "type": "Feature", "properties": { "uuid": 37, "name": "헨리영어아이(i)학원", "lon": 127.0048897, "lat": 37.5065508 }, "geometry": { "type": "Point", "coordinates": [ 127.0048897, 37.5065508 ] } },
{ "type": "Feature", "properties": { "uuid": 38, "name": "개념폴리아방배관학원", "lon": 126.9866613, "lat": 37.4861583 }, "geometry": { "type": "Point", "coordinates": [ 126.9866613, 37.4861583 ] } },
{ "type": "Feature", "properties": { "uuid": 39, "name": "이소키즈클럽어학원", "lon": 126.9929699, "lat": 37.4938081 }, "geometry": { "type": "Point", "coordinates": [ 126.9929699, 37.4938081 ] } },
{ "type": "Feature", "properties": { "uuid": 40, "name": "경인학원", "lon": 127.0306961, "lat": 37.4753638 }, "geometry": { "type": "Point", "coordinates": [ 127.0306961, 37.4753638 ] } },
{ "type": "Feature", "properties": { "uuid": 41, "name": "서초뉴이화음악학원", "lon": 127.0253957, "lat": 37.4708599 }, "geometry": { "type": "Point", "coordinates": [ 127.0253957, 37.4708599 ] } },
{ "type": "Feature", "properties": { "uuid": 43, "name": "경희무용학원", "lon": 127.0130338, "lat": 37.518531 }, "geometry": { "type": "Point", "coordinates": [ 127.0130338, 37.518531 ] } },
{ "type": "Feature", "properties": { "uuid": 44, "name": "103미술학원", "lon": 127.012073, "lat": 37.5021689 }, "geometry": { "type": "Point", "coordinates": [ 127.012073, 37.5021689 ] } },
{ "type": "Feature", "properties": { "uuid": 45, "name": "셈프레뮤직아트센터서초학원", "lon": 127.0219742, "lat": 37.4844376 }, "geometry": { "type": "Point", "coordinates": [ 127.0219742, 37.4844376 ] } },
{ "type": "Feature", "properties": { "uuid": 46, "name": "강남용문보습학원", "lon": 127.023732, "lat": 37.4866417 }, "geometry": { "type": "Point", "coordinates": [ 127.023732, 37.4866417 ] } },
{ "type": "Feature", "properties": { "uuid": 47, "name": "피엠지보습학원", "lon": 127.012073, "lat": 37.5021689 }, "geometry": { "type": "Point", "coordinates": [ 127.012073, 37.5021689 ] } },
{ "type": "Feature", "properties": { "uuid": 48, "name": "반포한신보습학원", "lon": 126.9947134, "lat": 37.5054735 }, "geometry": { "type": "Point", "coordinates": [ 126.9947134, 37.5054735 ] } },
{ "type": "Feature", "properties": { "uuid": 49, "name": "에스오티어학원", "lon": 127.0109714, "lat": 37.4999431 }, "geometry": { "type": "Point", "coordinates": [ 127.0109714, 37.4999431 ] } },
{ "type": "Feature", "properties": { "uuid": 50, "name": "에스엠에스(SMS)서울실용음악학원", "lon": 127.0229255, "lat": 37.5042866 }, "geometry": { "type": "Point", "coordinates": [ 127.0229255, 37.5042866 ] } },
{ "type": "Feature", "properties": { "uuid": 51, "name": "영재과학보습학원", "lon": 127.020806, "lat": 37.5037644 }, "geometry": { "type": "Point", "coordinates": [ 127.020806, 37.5037644 ] } },
{ "type": "Feature", "properties": { "uuid": 52, "name": "파고다원강남학원", "lon": 127.0262296, "lat": 37.4998086 }, "geometry": { "type": "Point", "coordinates": [ 127.0262296, 37.4998086 ] } },
{ "type": "Feature", "properties": { "uuid": 53, "name": "멘토(Mentor)독서실", "lon": 126.9889501, "lat": 37.4933593 }, "geometry": { "type": "Point", "coordinates": [ 126.9889501, 37.4933593 ] } },
{ "type": "Feature", "properties": { "uuid": 54, "name": "윤영숙수학전문학원", "lon": 126.9831156, "lat": 37.4933092 }, "geometry": { "type": "Point", "coordinates": [ 126.9831156, 37.4933092 ] } },
{ "type": "Feature", "properties": { "uuid": 55, "name": "현재어학원", "lon": 127.010651, "lat": 37.5010848 }, "geometry": { "type": "Point", "coordinates": [ 127.010651, 37.5010848 ] } },
{ "type": "Feature", "properties": { "uuid": 56, "name": "메디치보습학원", "lon": 127.0100772, "lat": 37.5162716 }, "geometry": { "type": "Point", "coordinates": [ 127.0100772, 37.5162716 ] } },
{ "type": "Feature", "properties": { "uuid": 57, "name": "퍼스널학원", "lon": 127.012073, "lat": 37.5021689 }, "geometry": { "type": "Point", "coordinates": [ 127.012073, 37.5021689 ] } },
{ "type": "Feature", "properties": { "uuid": 59, "name": "폴리아수학학원", "lon": 126.9889501, "lat": 37.4933593 }, "geometry": { "type": "Point", "coordinates": [ 126.9889501, 37.4933593 ] } },
{ "type": "Feature", "properties": { "uuid": 60, "name": "오예스영어학원", "lon": 127.0007575, "lat": 37.4788267 }, "geometry": { "type": "Point", "coordinates": [ 127.0007575, 37.4788267 ] } },
{ "type": "Feature", "properties": { "uuid": 61, "name": "새롬공인중개사학원", "lon": 127.0282432, "lat": 37.494536 }, "geometry": { "type": "Point", "coordinates": [ 127.0282432, 37.494536 ] } },
{ "type": "Feature", "properties": { "uuid": 62, "name": "진선생어학원", "lon": 127.0104593, "lat": 37.5018941 }, "geometry": { "type": "Point", "coordinates": [ 127.0104593, 37.5018941 ] } },
{ "type": "Feature", "properties": { "uuid": 63, "name": "서초무용학원", "lon": 127.0259319, "lat": 37.4922553 }, "geometry": { "type": "Point", "coordinates": [ 127.0259319, 37.4922553 ] } },
{ "type": "Feature", "properties": { "uuid": 64, "name": "샘밭미술학원", "lon": 126.996292, "lat": 37.4847087 }, "geometry": { "type": "Point", "coordinates": [ 126.996292, 37.4847087 ] } },
{ "type": "Feature", "properties": { "uuid": 65, "name": "참좋은음악학원", "lon": 127.0217403, "lat": 37.5015015 }, "geometry": { "type": "Point", "coordinates": [ 127.0217403, 37.5015015 ] } },
{ "type": "Feature", "properties": { "uuid": 66, "name": "으뜸창조미술학원", "lon": 127.0021861, "lat": 37.5057261 }, "geometry": { "type": "Point", "coordinates": [ 127.0021861, 37.5057261 ] } },
{ "type": "Feature", "properties": { "uuid": 67, "name": "하선정요리학원", "lon": 127.0021176, "lat": 37.5049236 }, "geometry": { "type": "Point", "coordinates": [ 127.0021176, 37.5049236 ] } },
{ "type": "Feature", "properties": { "uuid": 68, "name": "잠원씨앤에이논술보습학원", "lon": 127.008056, "lat": 37.5074515 }, "geometry": { "type": "Point", "coordinates": [ 127.008056, 37.5074515 ] } },
{ "type": "Feature", "properties": { "uuid": 69, "name": "코트라아카데미경영학원", "lon": 127.0447446, "lat": 37.465071 }, "geometry": { "type": "Point", "coordinates": [ 127.0447446, 37.465071 ] } },
{ "type": "Feature", "properties": { "uuid": 70, "name": "장수경어학원", "lon": 127.0285595, "lat": 37.4928176 }, "geometry": { "type": "Point", "coordinates": [ 127.0285595, 37.4928176 ] } },
{ "type": "Feature", "properties": { "uuid": 71, "name": "선재보습학원", "lon": 127.0048897, "lat": 37.5065508 }, "geometry": { "type": "Point", "coordinates": [ 127.0048897, 37.5065508 ] } },
{ "type": "Feature", "properties": { "uuid": 72, "name": "브릭앤멘사영재학원", "lon": 126.9864195, "lat": 37.4981942 }, "geometry": { "type": "Point", "coordinates": [ 126.9864195, 37.4981942 ] } },
{ "type": "Feature", "properties": { "uuid": 73, "name": "모든이피아노교습소", "lon": 127.0072402, "lat": 37.4870539 }, "geometry": { "type": "Point", "coordinates": [ 127.0072402, 37.4870539 ] } },
{ "type": "Feature", "properties": { "uuid": 74, "name": "중앙법률사무교육학원", "lon": 127.0091504, "lat": 37.487971 }, "geometry": { "type": "Point", "coordinates": [ 127.0091504, 37.487971 ] } },
{ "type": "Feature", "properties": { "uuid": 75, "name": "코몽드피부미용학원", "lon": 127.0178219, "lat": 37.5157146 }, "geometry": { "type": "Point", "coordinates": [ 127.0178219, 37.5157146 ] } },
{ "type": "Feature", "properties": { "uuid": 76, "name": "유진벨어학학원", "lon": 127.0185822, "lat": 37.4939335 }, "geometry": { "type": "Point", "coordinates": [ 127.0185822, 37.4939335 ] } },
{ "type": "Feature", "properties": { "uuid": 77, "name": "파워플러스영어학원", "lon": 127.0111962, "lat": 37.5017651 }, "geometry": { "type": "Point", "coordinates": [ 127.0111962, 37.5017651 ] } },
{ "type": "Feature", "properties": { "uuid": 78, "name": "반포탐구와은유학원", "lon": 127.0102777, "lat": 37.5019467 }, "geometry": { "type": "Point", "coordinates": [ 127.0102777, 37.5019467 ] } },
{ "type": "Feature", "properties": { "uuid": 79, "name": "포스트공연영상학원", "lon": 127.0396562, "lat": 37.4846187 }, "geometry": { "type": "Point", "coordinates": [ 127.0396562, 37.4846187 ] } },
{ "type": "Feature", "properties": { "uuid": 80, "name": "하윤미술교습소", "lon": 126.9910431, "lat": 37.4747975 }, "geometry": { "type": "Point", "coordinates": [ 126.9910431, 37.4747975 ] } },
{ "type": "Feature", "properties": { "uuid": 81, "name": "아이파경영학원", "lon": 127.0190938, "lat": 37.4945865 }, "geometry": { "type": "Point", "coordinates": [ 127.0190938, 37.4945865 ] } },
{ "type": "Feature", "properties": { "uuid": 82, "name": "유로센터독어교습소", "lon": 127.0189044, "lat": 37.5168409 }, "geometry": { "type": "Point", "coordinates": [ 127.0189044, 37.5168409 ] } },
{ "type": "Feature", "properties": { "uuid": 83, "name": "어셔어학원", "lon": 127.0036799, "lat": 37.5082166 }, "geometry": { "type": "Point", "coordinates": [ 127.0036799, 37.5082166 ] } },
{ "type": "Feature", "properties": { "uuid": 84, "name": "더블유에스에이피디피와인아카데미학원", "lon": 127.0177225, "lat": 37.5103525 }, "geometry": { "type": "Point", "coordinates": [ 127.0177225, 37.5103525 ] } },
{ "type": "Feature", "properties": { "uuid": 85, "name": "문클라리넷교습소", "lon": 127.0048897, "lat": 37.5065508 }, "geometry": { "type": "Point", "coordinates": [ 127.0048897, 37.5065508 ] } },
{ "type": "Feature", "properties": { "uuid": 86, "name": "더오름수학학원", "lon": 127.0104685, "lat": 37.5012004 }, "geometry": { "type": "Point", "coordinates": [ 127.0104685, 37.5012004 ] } },
{ "type": "Feature", "properties": { "uuid": 87, "name": "그림재미미술교습소", "lon": 127.0190881, "lat": 37.498479 }, "geometry": { "type": "Point", "coordinates": [ 127.0190881, 37.498479 ] } },
{ "type": "Feature", "properties": { "uuid": 88, "name": "이찬이대학편입학원", "lon": 127.0168439, "lat": 37.4936848 }, "geometry": { "type": "Point", "coordinates": [ 127.0168439, 37.4936848 ] } },
{ "type": "Feature", "properties": { "uuid": 89, "name": "박문각강남고시학원", "lon": 127.024742, "lat": 37.4985349 }, "geometry": { "type": "Point", "coordinates": [ 127.024742, 37.4985349 ] } },
{ "type": "Feature", "properties": { "uuid": 90, "name": "한우리서초독서논술학원", "lon": 127.0092948, "lat": 37.5035783 }, "geometry": { "type": "Point", "coordinates": [ 127.0092948, 37.5035783 ] } },
{ "type": "Feature", "properties": { "uuid": 91, "name": "오승은과학전문과학교습소", "lon": 126.9845826, "lat": 37.4910332 }, "geometry": { "type": "Point", "coordinates": [ 126.9845826, 37.4910332 ] } },
{ "type": "Feature", "properties": { "uuid": 92, "name": "시그마수학학원", "lon": 126.9915887, "lat": 37.4930845 }, "geometry": { "type": "Point", "coordinates": [ 126.9915887, 37.4930845 ] } },
{ "type": "Feature", "properties": { "uuid": 93, "name": "최고수학학원", "lon": 126.9871492, "lat": 37.5011109 }, "geometry": { "type": "Point", "coordinates": [ 126.9871492, 37.5011109 ] } },
{ "type": "Feature", "properties": { "uuid": 94, "name": "잼앤클래식음악교습소", "lon": 127.0143407, "lat": 37.5197943 }, "geometry": { "type": "Point", "coordinates": [ 127.0143407, 37.5197943 ] } },
{ "type": "Feature", "properties": { "uuid": 95, "name": "피아노포르테피아노교습소", "lon": 127.0000133, "lat": 37.5049688 }, "geometry": { "type": "Point", "coordinates": [ 127.0000133, 37.5049688 ] } },
{ "type": "Feature", "properties": { "uuid": 96, "name": "서초이화바이올린교습소", "lon": 127.0174633, "lat": 37.4999252 }, "geometry": { "type": "Point", "coordinates": [ 127.0174633, 37.4999252 ] } },
{ "type": "Feature", "properties": { "uuid": 97, "name": "아이비수학교습소", "lon": 127.0174633, "lat": 37.4999252 }, "geometry": { "type": "Point", "coordinates": [ 127.0174633, 37.4999252 ] } },
{ "type": "Feature", "properties": { "uuid": 98, "name": "반포향상피아노교습소", "lon": 126.9947134, "lat": 37.5054735 }, "geometry": { "type": "Point", "coordinates": [ 126.9947134, 37.5054735 ] } },
{ "type": "Feature", "properties": { "uuid": 99, "name": "이엔아이피아노교습소", "lon": 127.0021861, "lat": 37.5057261 }, "geometry": { "type": "Point", "coordinates": [ 127.0021861, 37.5057261 ] } },
{ "type": "Feature", "properties": { "uuid": 100, "name": "팝스터디학원", "lon": 127.0035592, "lat": 37.5087922 }, "geometry": { "type": "Point", "coordinates": [ 127.0035592, 37.5087922 ] } },
{ "type": "Feature", "properties": { "uuid": 101, "name": "파머스영어교습소", "lon": 126.9850255, "lat": 37.4791972 }, "geometry": { "type": "Point", "coordinates": [ 126.9850255, 37.4791972 ] } },
{ "type": "Feature", "properties": { "uuid": 102, "name": "클래식피아노교습소", "lon": 127.0217403, "lat": 37.5015015 }, "geometry": { "type": "Point", "coordinates": [ 127.0217403, 37.5015015 ] } },
{ "type": "Feature", "properties": { "uuid": 103, "name": "소르본보습학원", "lon": 127.0095874, "lat": 37.4985529 }, "geometry": { "type": "Point", "coordinates": [ 127.0095874, 37.4985529 ] } },
{ "type": "Feature", "properties": { "uuid": 104, "name": "와이즈만영재교육방배본원학원", "lon": 126.9949443, "lat": 37.4738937 }, "geometry": { "type": "Point", "coordinates": [ 126.9949443, 37.4738937 ] } },
{ "type": "Feature", "properties": { "uuid": 105, "name": "거성영어학원", "lon": 127.0248042, "lat": 37.4911468 }, "geometry": { "type": "Point", "coordinates": [ 127.0248042, 37.4911468 ] } },
{ "type": "Feature", "properties": { "uuid": 106, "name": "째즈탑아카데미실용음악학원", "lon": 127.0277116, "lat": 37.4910536 }, "geometry": { "type": "Point", "coordinates": [ 127.0277116, 37.4910536 ] } },
{ "type": "Feature", "properties": { "uuid": 107, "name": "반포세정3관학원", "lon": 127.0021861, "lat": 37.5057261 }, "geometry": { "type": "Point", "coordinates": [ 127.0021861, 37.5057261 ] } },
{ "type": "Feature", "properties": { "uuid": 108, "name": "아벨수학영어전문학원", "lon": 126.9887935, "lat": 37.4781302 }, "geometry": { "type": "Point", "coordinates": [ 126.9887935, 37.4781302 ] } },
{ "type": "Feature", "properties": { "uuid": 109, "name": "잠원바이올린교습소", "lon": 127.006478, "lat": 37.5070327 }, "geometry": { "type": "Point", "coordinates": [ 127.006478, 37.5070327 ] } },
{ "type": "Feature", "properties": { "uuid": 110, "name": "헨리영어전문학원", "lon": 127.0048897, "lat": 37.5065508 }, "geometry": { "type": "Point", "coordinates": [ 127.0048897, 37.5065508 ] } },
{ "type": "Feature", "properties": { "uuid": 111, "name": "네오과학학원", "lon": 127.0046736, "lat": 37.4819233 }, "geometry": { "type": "Point", "coordinates": [ 127.0046736, 37.4819233 ] } },
{ "type": "Feature", "properties": { "uuid": 112, "name": "기파랑문해원서초학원", "lon": 127.009858, "lat": 37.5037543 }, "geometry": { "type": "Point", "coordinates": [ 127.009858, 37.5037543 ] } },
{ "type": "Feature", "properties": { "uuid": 113, "name": "해바라기미술교습소", "lon": 127.0127556, "lat": 37.5130323 }, "geometry": { "type": "Point", "coordinates": [ 127.0127556, 37.5130323 ] } },
{ "type": "Feature", "properties": { "uuid": 114, "name": "은빛보습학원", "lon": 127.0455977, "lat": 37.4717637 }, "geometry": { "type": "Point", "coordinates": [ 127.0455977, 37.4717637 ] } },
{ "type": "Feature", "properties": { "uuid": 115, "name": "웅지학당시즌투학원", "lon": 126.9892846, "lat": 37.4911996 }, "geometry": { "type": "Point", "coordinates": [ 126.9892846, 37.4911996 ] } },
{ "type": "Feature", "properties": { "uuid": 116, "name": "지이에스성인고시학원", "lon": 127.0210749, "lat": 37.4840337 }, "geometry": { "type": "Point", "coordinates": [ 127.0210749, 37.4840337 ] } },
{ "type": "Feature", "properties": { "uuid": 117, "name": "채림미술교습소", "lon": 127.0259319, "lat": 37.4922553 }, "geometry": { "type": "Point", "coordinates": [ 127.0259319, 37.4922553 ] } },
{ "type": "Feature", "properties": { "uuid": 118, "name": "케이디에스부동산학원", "lon": 127.0160676, "lat": 37.492516 }, "geometry": { "type": "Point", "coordinates": [ 127.0160676, 37.492516 ] } },
{ "type": "Feature", "properties": { "uuid": 119, "name": "이엠피뮤직슐레음악학원", "lon": 127.0103877, "lat": 37.5021819 }, "geometry": { "type": "Point", "coordinates": [ 127.0103877, 37.5021819 ] } },
{ "type": "Feature", "properties": { "uuid": 120, "name": "서초탑클래스학원", "lon": 127.0042978, "lat": 37.4821274 }, "geometry": { "type": "Point", "coordinates": [ 127.0042978, 37.4821274 ] } },
{ "type": "Feature", "properties": { "uuid": 121, "name": "에스비에스(SBS)아카데미컴퓨터아트학원", "lon": 127.0265011, "lat": 37.4980628 }, "geometry": { "type": "Point", "coordinates": [ 127.0265011, 37.4980628 ] } },
{ "type": "Feature", "properties": { "uuid": 122, "name": "석사음악원피아노교습소", "lon": 127.0306961, "lat": 37.4753638 }, "geometry": { "type": "Point", "coordinates": [ 127.0306961, 37.4753638 ] } },
{ "type": "Feature", "properties": { "uuid": 123, "name": "리딩키즈리딩클럽영어전문교습소", "lon": 127.0311952, "lat": 37.4743587 }, "geometry": { "type": "Point", "coordinates": [ 127.0311952, 37.4743587 ] } },
{ "type": "Feature", "properties": { "uuid": 124, "name": "제이앤피영어전문학원", "lon": 127.0143407, "lat": 37.5197943 }, "geometry": { "type": "Point", "coordinates": [ 127.0143407, 37.5197943 ] } },
{ "type": "Feature", "properties": { "uuid": 125, "name": "진체크패스영어보습학원", "lon": 126.9918986, "lat": 37.4910598 }, "geometry": { "type": "Point", "coordinates": [ 126.9918986, 37.4910598 ] } },
{ "type": "Feature", "properties": { "uuid": 126, "name": "엘리트리에스비어학원", "lon": 127.0132085, "lat": 37.497529 }, "geometry": { "type": "Point", "coordinates": [ 127.0132085, 37.497529 ] } },
{ "type": "Feature", "properties": { "uuid": 127, "name": "아트앤빛미술교습소", "lon": 127.0007679, "lat": 37.4992716 }, "geometry": { "type": "Point", "coordinates": [ 127.0007679, 37.4992716 ] } },
{ "type": "Feature", "properties": { "uuid": 128, "name": "패스트레인정보통신학원", "lon": 127.0357793, "lat": 37.484506 }, "geometry": { "type": "Point", "coordinates": [ 127.0357793, 37.484506 ] } },
{ "type": "Feature", "properties": { "uuid": 129, "name": "요미요미미술학원", "lon": 127.0104441, "lat": 37.5004794 }, "geometry": { "type": "Point", "coordinates": [ 127.0104441, 37.5004794 ] } },
{ "type": "Feature", "properties": { "uuid": 130, "name": "프라임음악교습소", "lon": 126.9995807, "lat": 37.4780508 }, "geometry": { "type": "Point", "coordinates": [ 126.9995807, 37.4780508 ] } },
{ "type": "Feature", "properties": { "uuid": 131, "name": "아카데미라운지서초독서실", "lon": 127.0262233, "lat": 37.4872299 }, "geometry": { "type": "Point", "coordinates": [ 127.0262233, 37.4872299 ] } },
{ "type": "Feature", "properties": { "uuid": 132, "name": "애플트리서초어학학원", "lon": 127.0212667, "lat": 37.4901263 }, "geometry": { "type": "Point", "coordinates": [ 127.0212667, 37.4901263 ] } },
{ "type": "Feature", "properties": { "uuid": 133, "name": "서초한나피아노교습소", "lon": 127.0194018, "lat": 37.4961119 }, "geometry": { "type": "Point", "coordinates": [ 127.0194018, 37.4961119 ] } },
{ "type": "Feature", "properties": { "uuid": 134, "name": "서이플룻교습소", "lon": 127.0259319, "lat": 37.4922553 }, "geometry": { "type": "Point", "coordinates": [ 127.0259319, 37.4922553 ] } },
{ "type": "Feature", "properties": { "uuid": 135, "name": "방배삼호해법수학교습소", "lon": 126.9877635, "lat": 37.496656 }, "geometry": { "type": "Point", "coordinates": [ 126.9877635, 37.496656 ] } },
{ "type": "Feature", "properties": { "uuid": 136, "name": "손광균학원", "lon": 127.0101926, "lat": 37.5023965 }, "geometry": { "type": "Point", "coordinates": [ 127.0101926, 37.5023965 ] } },
{ "type": "Feature", "properties": { "uuid": 137, "name": "반포파인만학원", "lon": 127.0104411, "lat": 37.5007046 }, "geometry": { "type": "Point", "coordinates": [ 127.0104411, 37.5007046 ] } },
{ "type": "Feature", "properties": { "uuid": 138, "name": "스파르탄보습학원", "lon": 127.0104765, "lat": 37.5023088 }, "geometry": { "type": "Point", "coordinates": [ 127.0104765, 37.5023088 ] } },
{ "type": "Feature", "properties": { "uuid": 139, "name": "EMI영어교습소", "lon": 126.993188, "lat": 37.4893588 }, "geometry": { "type": "Point", "coordinates": [ 126.993188, 37.4893588 ] } },
{ "type": "Feature", "properties": { "uuid": 140, "name": "세라아트도예학원", "lon": 127.0001532, "lat": 37.480903 }, "geometry": { "type": "Point", "coordinates": [ 127.0001532, 37.480903 ] } },
{ "type": "Feature", "properties": { "uuid": 141, "name": "사랑이넘치는피아노학원", "lon": 126.9861984, "lat": 37.4869473 }, "geometry": { "type": "Point", "coordinates": [ 126.9861984, 37.4869473 ] } },
{ "type": "Feature", "properties": { "uuid": 142, "name": "아름다운음악교습소", "lon": 126.9841985, "lat": 37.485164 }, "geometry": { "type": "Point", "coordinates": [ 126.9841985, 37.485164 ] } },
{ "type": "Feature", "properties": { "uuid": 143, "name": "현재스토리학원", "lon": 127.0158903, "lat": 37.4922442 }, "geometry": { "type": "Point", "coordinates": [ 127.0158903, 37.4922442 ] } },
{ "type": "Feature", "properties": { "uuid": 144, "name": "대치에프엠(FM)수학학원", "lon": 127.0077216, "lat": 37.4831474 }, "geometry": { "type": "Point", "coordinates": [ 127.0077216, 37.4831474 ] } },
{ "type": "Feature", "properties": { "uuid": 145, "name": "황후연국제교육학원", "lon": 127.0465753, "lat": 37.4731232 }, "geometry": { "type": "Point", "coordinates": [ 127.0465753, 37.4731232 ] } },
{ "type": "Feature", "properties": { "uuid": 146, "name": "수목미술교습소", "lon": 126.9877635, "lat": 37.496656 }, "geometry": { "type": "Point", "coordinates": [ 126.9877635, 37.496656 ] } },
{ "type": "Feature", "properties": { "uuid": 147, "name": "서초실용음악학원", "lon": 127.0137474, "lat": 37.4961099 }, "geometry": { "type": "Point", "coordinates": [ 127.0137474, 37.4961099 ] } },
{ "type": "Feature", "properties": { "uuid": 148, "name": "생각하는그린나무미술교습소", "lon": 126.9889501, "lat": 37.4933593 }, "geometry": { "type": "Point", "coordinates": [ 126.9889501, 37.4933593 ] } },
{ "type": "Feature", "properties": { "uuid": 149, "name": "대림이엔아이피아노교습소", "lon": 127.0100772, "lat": 37.5162716 }, "geometry": { "type": "Point", "coordinates": [ 127.0100772, 37.5162716 ] } },
{ "type": "Feature", "properties": { "uuid": 150, "name": "비티비(BTB)아카데미학원", "lon": 127.0075413, "lat": 37.4831008 }, "geometry": { "type": "Point", "coordinates": [ 127.0075413, 37.4831008 ] } },
{ "type": "Feature", "properties": { "uuid": 151, "name": "조민정피아노교습소", "lon": 127.0014445, "lat": 37.5096033 }, "geometry": { "type": "Point", "coordinates": [ 127.0014445, 37.5096033 ] } },
{ "type": "Feature", "properties": { "uuid": 152, "name": "반포아너스영어학원", "lon": 126.9832776, "lat": 37.4963742 }, "geometry": { "type": "Point", "coordinates": [ 126.9832776, 37.4963742 ] } },
{ "type": "Feature", "properties": { "uuid": 153, "name": "다플교육센터통역학원", "lon": 127.0100655, "lat": 37.4888887 }, "geometry": { "type": "Point", "coordinates": [ 127.0100655, 37.4888887 ] } },
{ "type": "Feature", "properties": { "uuid": 154, "name": "김&김학원", "lon": 126.99508, "lat": 37.4848696 }, "geometry": { "type": "Point", "coordinates": [ 126.99508, 37.4848696 ] } },
{ "type": "Feature", "properties": { "uuid": 155, "name": "엠에이에스수학교습소", "lon": 127.012073, "lat": 37.5021689 }, "geometry": { "type": "Point", "coordinates": [ 127.012073, 37.5021689 ] } },
{ "type": "Feature", "properties": { "uuid": 156, "name": "이수형수학학원", "lon": 127.0090872, "lat": 37.483339 }, "geometry": { "type": "Point", "coordinates": [ 127.0090872, 37.483339 ] } },
{ "type": "Feature", "properties": { "uuid": 157, "name": "비더블유에스강남와인학원", "lon": 127.0369441, "lat": 37.4624667 }, "geometry": { "type": "Point", "coordinates": [ 127.0369441, 37.4624667 ] } },
{ "type": "Feature", "properties": { "uuid": 158, "name": "문현선플로리스트학원", "lon": 127.0321412, "lat": 37.48517 }, "geometry": { "type": "Point", "coordinates": [ 127.0321412, 37.48517 ] } },
{ "type": "Feature", "properties": { "uuid": 159, "name": "멜라뷰티학원", "lon": 127.0425653, "lat": 37.4684233 }, "geometry": { "type": "Point", "coordinates": [ 127.0425653, 37.4684233 ] } },
{ "type": "Feature", "properties": { "uuid": 160, "name": "서초수학교습소", "lon": 127.0207994, "lat": 37.4904108 }, "geometry": { "type": "Point", "coordinates": [ 127.0207994, 37.4904108 ] } },
{ "type": "Feature", "properties": { "uuid": 161, "name": "씨존만화학원", "lon": 127.0317788, "lat": 37.4869602 }, "geometry": { "type": "Point", "coordinates": [ 127.0317788, 37.4869602 ] } },
{ "type": "Feature", "properties": { "uuid": 162, "name": "빛과공간미술교습소", "lon": 127.0014445, "lat": 37.5096033 }, "geometry": { "type": "Point", "coordinates": [ 127.0014445, 37.5096033 ] } },
{ "type": "Feature", "properties": { "uuid": 163, "name": "최상위하다학원", "lon": 127.0259319, "lat": 37.4922553 }, "geometry": { "type": "Point", "coordinates": [ 127.0259319, 37.4922553 ] } },
{ "type": "Feature", "properties": { "uuid": 164, "name": "해커스어학원", "lon": 127.0242235, "lat": 37.4984044 }, "geometry": { "type": "Point", "coordinates": [ 127.0242235, 37.4984044 ] } },
{ "type": "Feature", "properties": { "uuid": 165, "name": "비트교육센터별관학원", "lon": 127.02762, "lat": 37.49463 }, "geometry": { "type": "Point", "coordinates": [ 127.02762, 37.49463 ] } },
{ "type": "Feature", "properties": { "uuid": 166, "name": "수연미술교습소", "lon": 126.9880473, "lat": 37.4957393 }, "geometry": { "type": "Point", "coordinates": [ 126.9880473, 37.4957393 ] } },
{ "type": "Feature", "properties": { "uuid": 167, "name": "이스프릿어학학원", "lon": 127.0167676, "lat": 37.51503 }, "geometry": { "type": "Point", "coordinates": [ 127.0167676, 37.51503 ] } },
{ "type": "Feature", "properties": { "uuid": 168, "name": "프렌즈음악학원", "lon": 126.9981571, "lat": 37.4991414 }, "geometry": { "type": "Point", "coordinates": [ 126.9981571, 37.4991414 ] } },
{ "type": "Feature", "properties": { "uuid": 169, "name": "글로벌수학전문학원", "lon": 127.042301, "lat": 37.4731877 }, "geometry": { "type": "Point", "coordinates": [ 127.042301, 37.4731877 ] } },
{ "type": "Feature", "properties": { "uuid": 170, "name": "서초에이프릴어학원", "lon": 127.0111962, "lat": 37.5017651 }, "geometry": { "type": "Point", "coordinates": [ 127.0111962, 37.5017651 ] } },
{ "type": "Feature", "properties": { "uuid": 171, "name": "엘리제음악교습소", "lon": 127.0249371, "lat": 37.4904901 }, "geometry": { "type": "Point", "coordinates": [ 127.0249371, 37.4904901 ] } },
{ "type": "Feature", "properties": { "uuid": 172, "name": "맹자희교습소", "lon": 123.7417741, "lat": 32.5220203 }, "geometry": { "type": "Point", "coordinates": [ 123.7417741, 32.5220203 ] } },
{ "type": "Feature", "properties": { "uuid": 173, "name": "황미숙교습소", "lon": 127.0014497, "lat": 37.4811843 }, "geometry": { "type": "Point", "coordinates": [ 127.0014497, 37.4811843 ] } },
{ "type": "Feature", "properties": { "uuid": 174, "name": "나순천교습소", "lon": 123.7417741, "lat": 32.5220203 }, "geometry": { "type": "Point", "coordinates": [ 123.7417741, 32.5220203 ] } },
{ "type": "Feature", "properties": { "uuid": 175, "name": "박진우교습소", "lon": 126.9968778, "lat": 37.5068525 }, "geometry": { "type": "Point", "coordinates": [ 126.9968778, 37.5068525 ] } },
{ "type": "Feature", "properties": { "uuid": 176, "name": "강정옥교습소", "lon": 126.9968778, "lat": 37.5068525 }, "geometry": { "type": "Point", "coordinates": [ 126.9968778, 37.5068525 ] } },
{ "type": "Feature", "properties": { "uuid": 177, "name": "전희정교습소", "lon": 127.0115847, "lat": 37.51004 }, "geometry": { "type": "Point", "coordinates": [ 127.0115847, 37.51004 ] } },
{ "type": "Feature", "properties": { "uuid": 178, "name": "임은순교습소", "lon": 127.0115847, "lat": 37.51004 }, "geometry": { "type": "Point", "coordinates": [ 127.0115847, 37.51004 ] } },
{ "type": "Feature", "properties": { "uuid": 179, "name": "박스란교습소", "lon": 127.0115847, "lat": 37.51004 }, "geometry": { "type": "Point", "coordinates": [ 127.0115847, 37.51004 ] } },
{ "type": "Feature", "properties": { "uuid": 180, "name": "김경자교습소", "lon": 127.0115847, "lat": 37.51004 }, "geometry": { "type": "Point", "coordinates": [ 127.0115847, 37.51004 ] } },
{ "type": "Feature", "properties": { "uuid": 181, "name": "강정자피아노", "lon": 126.9937168, "lat": 37.4836506 }, "geometry": { "type": "Point", "coordinates": [ 126.9937168, 37.4836506 ] } },
{ "type": "Feature", "properties": { "uuid": 182, "name": "한국속성한문교습소", "lon": 127.0143407, "lat": 37.5197943 }, "geometry": { "type": "Point", "coordinates": [ 127.0143407, 37.5197943 ] } },
{ "type": "Feature", "properties": { "uuid": 183, "name": "아이캔스피치&리더십센터교습소", "lon": 127.0034252, "lat": 37.506106 }, "geometry": { "type": "Point", "coordinates": [ 127.0034252, 37.506106 ] } },
{ "type": "Feature", "properties": { "uuid": 184, "name": "덕암한문교습소", "lon": 127.0322158, "lat": 37.4749978 }, "geometry": { "type": "Point", "coordinates": [ 127.0322158, 37.4749978 ] } },
{ "type": "Feature", "properties": { "uuid": 185, "name": "방배발레아카데미무용교습소", "lon": 127.0065231, "lat": 37.4780193 }, "geometry": { "type": "Point", "coordinates": [ 127.0065231, 37.4780193 ] } },
{ "type": "Feature", "properties": { "uuid": 186, "name": "피아노친구피아노교습소", "lon": 126.9856989, "lat": 37.4787254 }, "geometry": { "type": "Point", "coordinates": [ 126.9856989, 37.4787254 ] } },
{ "type": "Feature", "properties": { "uuid": 187, "name": "두란노서예교습소", "lon": 126.9861984, "lat": 37.4869473 }, "geometry": { "type": "Point", "coordinates": [ 126.9861984, 37.4869473 ] } },
{ "type": "Feature", "properties": { "uuid": 188, "name": "명진피아노", "lon": 126.9961583, "lat": 37.4862484 }, "geometry": { "type": "Point", "coordinates": [ 126.9961583, 37.4862484 ] } },
{ "type": "Feature", "properties": { "uuid": 189, "name": "강남알프레드피아노교습소", "lon": 127.0194018, "lat": 37.4961119 }, "geometry": { "type": "Point", "coordinates": [ 127.0194018, 37.4961119 ] } },
{ "type": "Feature", "properties": { "uuid": 190, "name": "방배피아노", "lon": 123.7417741, "lat": 32.5220203 }, "geometry": { "type": "Point", "coordinates": [ 123.7417741, 32.5220203 ] } },
{ "type": "Feature", "properties": { "uuid": 191, "name": "클라비어피아노교습소", "lon": 126.9838009, "lat": 37.478619 }, "geometry": { "type": "Point", "coordinates": [ 126.9838009, 37.478619 ] } },
{ "type": "Feature", "properties": { "uuid": 192, "name": "연세영어교습소", "lon": 127.0259319, "lat": 37.4922553 }, "geometry": { "type": "Point", "coordinates": [ 127.0259319, 37.4922553 ] } },
{ "type": "Feature", "properties": { "uuid": 193, "name": "비하우스바이올린교습", "lon": 126.9869203, "lat": 37.5021451 }, "geometry": { "type": "Point", "coordinates": [ 126.9869203, 37.5021451 ] } },
{ "type": "Feature", "properties": { "uuid": 194, "name": "비하우스첼로교습소", "lon": 126.9869203, "lat": 37.5021451 }, "geometry": { "type": "Point", "coordinates": [ 126.9869203, 37.5021451 ] } },
{ "type": "Feature", "properties": { "uuid": 195, "name": "새세잔미술교습소", "lon": 127.0445078, "lat": 37.4694662 }, "geometry": { "type": "Point", "coordinates": [ 127.0445078, 37.4694662 ] } },
{ "type": "Feature", "properties": { "uuid": 196, "name": "설악피아노교습소", "lon": 127.0154635, "lat": 37.5178575 }, "geometry": { "type": "Point", "coordinates": [ 127.0154635, 37.5178575 ] } },
{ "type": "Feature", "properties": { "uuid": 197, "name": "아마빌레플러스음악교습소", "lon": 126.9831773, "lat": 37.4895974 }, "geometry": { "type": "Point", "coordinates": [ 126.9831773, 37.4895974 ] } },
{ "type": "Feature", "properties": { "uuid": 198, "name": "신나는이화미술교습소", "lon": 127.0417021, "lat": 37.4793641 }, "geometry": { "type": "Point", "coordinates": [ 127.0417021, 37.4793641 ] } },
{ "type": "Feature", "properties": { "uuid": 199, "name": "신영피아노교습소", "lon": 126.9863721, "lat": 37.4832905 }, "geometry": { "type": "Point", "coordinates": [ 126.9863721, 37.4832905 ] } },
{ "type": "Feature", "properties": { "uuid": 200, "name": "피아노쥬이르음악교습소", "lon": 127.0227407, "lat": 37.5019783 }, "geometry": { "type": "Point", "coordinates": [ 127.0227407, 37.5019783 ] } },
{ "type": "Feature", "properties": { "uuid": 201, "name": "바로크음악교습소", "lon": 127.0440268, "lat": 37.473499 }, "geometry": { "type": "Point", "coordinates": [ 127.0440268, 37.473499 ] } },
{ "type": "Feature", "properties": { "uuid": 202, "name": "하이러브음악교습소", "lon": 126.9854482, "lat": 37.492248 }, "geometry": { "type": "Point", "coordinates": [ 126.9854482, 37.492248 ] } },
{ "type": "Feature", "properties": { "uuid": 203, "name": "피아노스토리음악교습소", "lon": 127.0100772, "lat": 37.5162716 }, "geometry": { "type": "Point", "coordinates": [ 127.0100772, 37.5162716 ] } },
{ "type": "Feature", "properties": { "uuid": 204, "name": "우수피아노교습소", "lon": 127.0091328, "lat": 37.4807444 }, "geometry": { "type": "Point", "coordinates": [ 127.0091328, 37.4807444 ] } },
{ "type": "Feature", "properties": { "uuid": 205, "name": "우암바이올린교습소", "lon": 127.0247163, "lat": 37.4709444 }, "geometry": { "type": "Point", "coordinates": [ 127.0247163, 37.4709444 ] } },
{ "type": "Feature", "properties": { "uuid": 206, "name": "조이풀음악교습소", "lon": 126.9851723, "lat": 37.4792074 }, "geometry": { "type": "Point", "coordinates": [ 126.9851723, 37.4792074 ] } },
{ "type": "Feature", "properties": { "uuid": 208, "name": "이화음악교습소", "lon": 127.0174633, "lat": 37.4999252 }, "geometry": { "type": "Point", "coordinates": [ 127.0174633, 37.4999252 ] } },
{ "type": "Feature", "properties": { "uuid": 209, "name": "비바체피아노교습소", "lon": 127.0007679, "lat": 37.4992716 }, "geometry": { "type": "Point", "coordinates": [ 127.0007679, 37.4992716 ] } },
{ "type": "Feature", "properties": { "uuid": 210, "name": "전민숙피아노", "lon": 127.0000133, "lat": 37.5049688 }, "geometry": { "type": "Point", "coordinates": [ 127.0000133, 37.5049688 ] } },
{ "type": "Feature", "properties": { "uuid": 211, "name": "창봉서예교습소", "lon": 127.0250988, "lat": 37.4710827 }, "geometry": { "type": "Point", "coordinates": [ 127.0250988, 37.4710827 ] } },
{ "type": "Feature", "properties": { "uuid": 212, "name": "글고운서예교습소", "lon": 127.0090872, "lat": 37.483339 }, "geometry": { "type": "Point", "coordinates": [ 127.0090872, 37.483339 ] } },
{ "type": "Feature", "properties": { "uuid": 213, "name": "파가니니바이올린교습소", "lon": 127.0143407, "lat": 37.5197943 }, "geometry": { "type": "Point", "coordinates": [ 127.0143407, 37.5197943 ] } },
{ "type": "Feature", "properties": { "uuid": 214, "name": "푸른미술과외교습소", "lon": 127.0249371, "lat": 37.4904901 }, "geometry": { "type": "Point", "coordinates": [ 127.0249371, 37.4904901 ] } },
{ "type": "Feature", "properties": { "uuid": 215, "name": "하늘피아노교습소", "lon": 127.0263178, "lat": 37.4869243 }, "geometry": { "type": "Point", "coordinates": [ 127.0263178, 37.4869243 ] } },
{ "type": "Feature", "properties": { "uuid": 216, "name": "한겨례서예", "lon": 127.0175436, "lat": 37.5162349 }, "geometry": { "type": "Point", "coordinates": [ 127.0175436, 37.5162349 ] } },
{ "type": "Feature", "properties": { "uuid": 217, "name": "국악누리교습소", "lon": 127.012073, "lat": 37.5021689 }, "geometry": { "type": "Point", "coordinates": [ 127.012073, 37.5021689 ] } },
{ "type": "Feature", "properties": { "uuid": 218, "name": "향촌서예교습소", "lon": 126.9880473, "lat": 37.4957393 }, "geometry": { "type": "Point", "coordinates": [ 126.9880473, 37.4957393 ] } },
{ "type": "Feature", "properties": { "uuid": 219, "name": "뮤직앤스토리음악교습소", "lon": 126.992457, "lat": 37.4823244 }, "geometry": { "type": "Point", "coordinates": [ 126.992457, 37.4823244 ] } },
{ "type": "Feature", "properties": { "uuid": 220, "name": "반디과학전문학원", "lon": 126.9915887, "lat": 37.4930845 }, "geometry": { "type": "Point", "coordinates": [ 126.9915887, 37.4930845 ] } },
{ "type": "Feature", "properties": { "uuid": 221, "name": "도레미아카데미음악교습소", "lon": 127.0277116, "lat": 37.4910536 }, "geometry": { "type": "Point", "coordinates": [ 127.0277116, 37.4910536 ] } },
{ "type": "Feature", "properties": { "uuid": 222, "name": "도레미음악교습소", "lon": 127.0277116, "lat": 37.4910536 }, "geometry": { "type": "Point", "coordinates": [ 127.0277116, 37.4910536 ] } },
{ "type": "Feature", "properties": { "uuid": 223, "name": "멘토2관학원", "lon": 126.9871492, "lat": 37.5011109 }, "geometry": { "type": "Point", "coordinates": [ 126.9871492, 37.5011109 ] } },
{ "type": "Feature", "properties": { "uuid": 224, "name": "해커스어학원강남제1별관학원", "lon": 127.024742, "lat": 37.4985349 }, "geometry": { "type": "Point", "coordinates": [ 127.024742, 37.4985349 ] } },
{ "type": "Feature", "properties": { "uuid": 225, "name": "방배지앤비영어전문학원", "lon": 126.987608, "lat": 37.4780119 }, "geometry": { "type": "Point", "coordinates": [ 126.987608, 37.4780119 ] } },
{ "type": "Feature", "properties": { "uuid": 226, "name": "엘리트서초어학원", "lon": 127.0102102, "lat": 37.5002071 }, "geometry": { "type": "Point", "coordinates": [ 127.0102102, 37.5002071 ] } },
{ "type": "Feature", "properties": { "uuid": 227, "name": "세명학원", "lon": 126.9869203, "lat": 37.5021451 }, "geometry": { "type": "Point", "coordinates": [ 126.9869203, 37.5021451 ] } },
{ "type": "Feature", "properties": { "uuid": 228, "name": "그림마을미술교습소", "lon": 127.0137011, "lat": 37.5004886 }, "geometry": { "type": "Point", "coordinates": [ 127.0137011, 37.5004886 ] } },
{ "type": "Feature", "properties": { "uuid": 229, "name": "방배에이프릴어학원", "lon": 126.9948913, "lat": 37.4913556 }, "geometry": { "type": "Point", "coordinates": [ 126.9948913, 37.4913556 ] } },
{ "type": "Feature", "properties": { "uuid": 230, "name": "(주)방배청담어학원", "lon": 126.9948913, "lat": 37.4913556 }, "geometry": { "type": "Point", "coordinates": [ 126.9948913, 37.4913556 ] } },
{ "type": "Feature", "properties": { "uuid": 231, "name": "서래나무스즈키음악교습소", "lon": 126.9877635, "lat": 37.496656 }, "geometry": { "type": "Point", "coordinates": [ 126.9877635, 37.496656 ] } },
{ "type": "Feature", "properties": { "uuid": 232, "name": "웰라잉글리쉬영어교습소", "lon": 126.9995807, "lat": 37.4780508 }, "geometry": { "type": "Point", "coordinates": [ 126.9995807, 37.4780508 ] } },
{ "type": "Feature", "properties": { "uuid": 233, "name": "반포친우음악교습소", "lon": 127.0139482, "lat": 37.5066358 }, "geometry": { "type": "Point", "coordinates": [ 127.0139482, 37.5066358 ] } },
{ "type": "Feature", "properties": { "uuid": 234, "name": "근육학아카데미학원", "lon": 127.0307723, "lat": 37.4869699 }, "geometry": { "type": "Point", "coordinates": [ 127.0307723, 37.4869699 ] } },
{ "type": "Feature", "properties": { "uuid": 235, "name": "이지스아카데미학원", "lon": 126.9982734, "lat": 37.4811214 }, "geometry": { "type": "Point", "coordinates": [ 126.9982734, 37.4811214 ] } },
{ "type": "Feature", "properties": { "uuid": 236, "name": "한자365한문교습소", "lon": 127.0000133, "lat": 37.5049688 }, "geometry": { "type": "Point", "coordinates": [ 127.0000133, 37.5049688 ] } },
{ "type": "Feature", "properties": { "uuid": 237, "name": "양재우사회교습소", "lon": 127.0034252, "lat": 37.506106 }, "geometry": { "type": "Point", "coordinates": [ 127.0034252, 37.506106 ] } },
{ "type": "Feature", "properties": { "uuid": 238, "name": "호스코아카데미학원", "lon": 127.0116421, "lat": 37.4876674 }, "geometry": { "type": "Point", "coordinates": [ 127.0116421, 37.4876674 ] } },
{ "type": "Feature", "properties": { "uuid": 239, "name": "신애음악학원", "lon": 127.0265924, "lat": 37.4718519 }, "geometry": { "type": "Point", "coordinates": [ 127.0265924, 37.4718519 ] } },
{ "type": "Feature", "properties": { "uuid": 240, "name": "예음피아노교습소", "lon": 126.9870974, "lat": 37.4865225 }, "geometry": { "type": "Point", "coordinates": [ 126.9870974, 37.4865225 ] } },
{ "type": "Feature", "properties": { "uuid": 241, "name": "와룡국어교습소", "lon": 127.0055318, "lat": 37.5067454 }, "geometry": { "type": "Point", "coordinates": [ 127.0055318, 37.5067454 ] } },
{ "type": "Feature", "properties": { "uuid": 242, "name": "본스타트레이닝센터학원", "lon": 127.0171001, "lat": 37.5155464 }, "geometry": { "type": "Point", "coordinates": [ 127.0171001, 37.5155464 ] } },
{ "type": "Feature", "properties": { "uuid": 243, "name": "하이츠방배캠퍼스학원", "lon": 126.991494, "lat": 37.4917141 }, "geometry": { "type": "Point", "coordinates": [ 126.991494, 37.4917141 ] } },
{ "type": "Feature", "properties": { "uuid": 244, "name": "해커스어학원강남제6별관학원", "lon": 127.0243361, "lat": 37.5010544 }, "geometry": { "type": "Point", "coordinates": [ 127.0243361, 37.5010544 ] } },
{ "type": "Feature", "properties": { "uuid": 245, "name": "심앤김국수시대학원", "lon": 126.9972242, "lat": 37.4826442 }, "geometry": { "type": "Point", "coordinates": [ 126.9972242, 37.4826442 ] } },
{ "type": "Feature", "properties": { "uuid": 246, "name": "청어람국어교습소", "lon": 127.0259319, "lat": 37.4922553 }, "geometry": { "type": "Point", "coordinates": [ 127.0259319, 37.4922553 ] } },
{ "type": "Feature", "properties": { "uuid": 247, "name": "베블렌수학학원", "lon": 126.9828163, "lat": 37.4870263 }, "geometry": { "type": "Point", "coordinates": [ 126.9828163, 37.4870263 ] } },
{ "type": "Feature", "properties": { "uuid": 248, "name": "한국공급관리교육학원", "lon": 127.0126509, "lat": 37.4840446 }, "geometry": { "type": "Point", "coordinates": [ 127.0126509, 37.4840446 ] } },
{ "type": "Feature", "properties": { "uuid": 249, "name": "동암한문교습소", "lon": 127.0259319, "lat": 37.4922553 }, "geometry": { "type": "Point", "coordinates": [ 127.0259319, 37.4922553 ] } },
{ "type": "Feature", "properties": { "uuid": 250, "name": "시그마2수학학원", "lon": 126.9928708, "lat": 37.4877162 }, "geometry": { "type": "Point", "coordinates": [ 126.9928708, 37.4877162 ] } },
{ "type": "Feature", "properties": { "uuid": 252, "name": "지니클리닉영어교습소", "lon": 127.0248042, "lat": 37.4911468 }, "geometry": { "type": "Point", "coordinates": [ 127.0248042, 37.4911468 ] } },
{ "type": "Feature", "properties": { "uuid": 253, "name": "비아이에스어학원", "lon": 127.0113091, "lat": 37.5000631 }, "geometry": { "type": "Point", "coordinates": [ 127.0113091, 37.5000631 ] } },
{ "type": "Feature", "properties": { "uuid": 254, "name": "잠원예랑미술학원", "lon": 127.0035592, "lat": 37.5087922 }, "geometry": { "type": "Point", "coordinates": [ 127.0035592, 37.5087922 ] } },
{ "type": "Feature", "properties": { "uuid": 255, "name": "시매쓰학원", "lon": 127.0075413, "lat": 37.4831008 }, "geometry": { "type": "Point", "coordinates": [ 127.0075413, 37.4831008 ] } },
{ "type": "Feature", "properties": { "uuid": 256, "name": "반포연세피아노교습소", "lon": 126.9901309, "lat": 37.5039297 }, "geometry": { "type": "Point", "coordinates": [ 126.9901309, 37.5039297 ] } },
{ "type": "Feature", "properties": { "uuid": 257, "name": "역사사고력논술교습소", "lon": 126.9888745, "lat": 37.4947733 }, "geometry": { "type": "Point", "coordinates": [ 126.9888745, 37.4947733 ] } },
{ "type": "Feature", "properties": { "uuid": 258, "name": "서초소마학원", "lon": 127.0101914, "lat": 37.5033426 }, "geometry": { "type": "Point", "coordinates": [ 127.0101914, 37.5033426 ] } },
{ "type": "Feature", "properties": { "uuid": 259, "name": "이룸수학교습소", "lon": 127.0072892, "lat": 37.5072738 }, "geometry": { "type": "Point", "coordinates": [ 127.0072892, 37.5072738 ] } },
{ "type": "Feature", "properties": { "uuid": 260, "name": "클라라슈만음악학원", "lon": 127.044458, "lat": 37.4733764 }, "geometry": { "type": "Point", "coordinates": [ 127.044458, 37.4733764 ] } },
{ "type": "Feature", "properties": { "uuid": 261, "name": "가인학원", "lon": 127.0109178, "lat": 37.4997174 }, "geometry": { "type": "Point", "coordinates": [ 127.0109178, 37.4997174 ] } },
{ "type": "Feature", "properties": { "uuid": 263, "name": "씨지앤아이(CGNI)게임그래픽학원", "lon": 127.0186909, "lat": 37.4942678 }, "geometry": { "type": "Point", "coordinates": [ 127.0186909, 37.4942678 ] } },
{ "type": "Feature", "properties": { "uuid": 264, "name": "비와이피(BYP)보습학원", "lon": 126.9835007, "lat": 37.4907625 }, "geometry": { "type": "Point", "coordinates": [ 126.9835007, 37.4907625 ] } },
{ "type": "Feature", "properties": { "uuid": 265, "name": "아름재즈피아노교습소", "lon": 127.0121453, "lat": 37.4898162 }, "geometry": { "type": "Point", "coordinates": [ 127.0121453, 37.4898162 ] } },
{ "type": "Feature", "properties": { "uuid": 266, "name": "플래뮤서초미술학원", "lon": 127.0100401, "lat": 37.5036657 }, "geometry": { "type": "Point", "coordinates": [ 127.0100401, 37.5036657 ] } },
{ "type": "Feature", "properties": { "uuid": 267, "name": "지브이씨에스랭귀지프렙어학원", "lon": 126.9911218, "lat": 37.4975317 }, "geometry": { "type": "Point", "coordinates": [ 126.9911218, 37.4975317 ] } },
{ "type": "Feature", "properties": { "uuid": 268, "name": "엠케이영어교습소", "lon": 127.0253957, "lat": 37.4708599 }, "geometry": { "type": "Point", "coordinates": [ 127.0253957, 37.4708599 ] } },
{ "type": "Feature", "properties": { "uuid": 269, "name": "게이트서초어학학원", "lon": 127.0212667, "lat": 37.4901263 }, "geometry": { "type": "Point", "coordinates": [ 127.0212667, 37.4901263 ] } },
{ "type": "Feature", "properties": { "uuid": 270, "name": "토브국어교습소", "lon": 127.0285717, "lat": 37.4866365 }, "geometry": { "type": "Point", "coordinates": [ 127.0285717, 37.4866365 ] } },
{ "type": "Feature", "properties": { "uuid": 271, "name": "김수희과학보습학원", "lon": 126.9983523, "lat": 37.4997737 }, "geometry": { "type": "Point", "coordinates": [ 126.9983523, 37.4997737 ] } },
{ "type": "Feature", "properties": { "uuid": 272, "name": "강신백국어보습학원", "lon": 126.9832776, "lat": 37.4963742 }, "geometry": { "type": "Point", "coordinates": [ 126.9832776, 37.4963742 ] } },
{ "type": "Feature", "properties": { "uuid": 273, "name": "프리셀영어학원", "lon": 127.0104441, "lat": 37.5004794 }, "geometry": { "type": "Point", "coordinates": [ 127.0104441, 37.5004794 ] } },
{ "type": "Feature", "properties": { "uuid": 274, "name": "아이파재경교육학원", "lon": 127.0198315, "lat": 37.4943854 }, "geometry": { "type": "Point", "coordinates": [ 127.0198315, 37.4943854 ] } },
{ "type": "Feature", "properties": { "uuid": 275, "name": "메이저수학학원", "lon": 127.0097136, "lat": 37.5035548 }, "geometry": { "type": "Point", "coordinates": [ 127.0097136, 37.5035548 ] } },
{ "type": "Feature", "properties": { "uuid": 276, "name": "피아이서초어학원", "lon": 127.0113091, "lat": 37.5000631 }, "geometry": { "type": "Point", "coordinates": [ 127.0113091, 37.5000631 ] } },
{ "type": "Feature", "properties": { "uuid": 278, "name": "탐구와은유학원", "lon": 127.0103877, "lat": 37.5021819 }, "geometry": { "type": "Point", "coordinates": [ 127.0103877, 37.5021819 ] } },
{ "type": "Feature", "properties": { "uuid": 279, "name": "뜰아트미술교습소", "lon": 127.024887, "lat": 37.4917331 }, "geometry": { "type": "Point", "coordinates": [ 127.024887, 37.4917331 ] } },
{ "type": "Feature", "properties": { "uuid": 280, "name": "이튼교육강남독학재수학원", "lon": 127.028693, "lat": 37.4929899 }, "geometry": { "type": "Point", "coordinates": [ 127.028693, 37.4929899 ] } },
{ "type": "Feature", "properties": { "uuid": 281, "name": "반포해냄학원", "lon": 127.0021861, "lat": 37.5057261 }, "geometry": { "type": "Point", "coordinates": [ 127.0021861, 37.5057261 ] } },
{ "type": "Feature", "properties": { "uuid": 282, "name": "앙상블음악교습소", "lon": 126.9871929, "lat": 37.4769361 }, "geometry": { "type": "Point", "coordinates": [ 126.9871929, 37.4769361 ] } },
{ "type": "Feature", "properties": { "uuid": 283, "name": "이루트학원", "lon": 127.0448006, "lat": 37.4695497 }, "geometry": { "type": "Point", "coordinates": [ 127.0448006, 37.4695497 ] } },
{ "type": "Feature", "properties": { "uuid": 284, "name": "클라라피아노스튜디오교습소", "lon": 127.0014445, "lat": 37.5096033 }, "geometry": { "type": "Point", "coordinates": [ 127.0014445, 37.5096033 ] } },
{ "type": "Feature", "properties": { "uuid": 285, "name": "고트수학교습소", "lon": 127.012073, "lat": 37.5021689 }, "geometry": { "type": "Point", "coordinates": [ 127.012073, 37.5021689 ] } },
{ "type": "Feature", "properties": { "uuid": 286, "name": "킹스타운서초어학원", "lon": 126.9921857, "lat": 37.4932608 }, "geometry": { "type": "Point", "coordinates": [ 126.9921857, 37.4932608 ] } },
{ "type": "Feature", "properties": { "uuid": 287, "name": "사비나아트미술교습소", "lon": 127.0087853, "lat": 37.5010511 }, "geometry": { "type": "Point", "coordinates": [ 127.0087853, 37.5010511 ] } },
{ "type": "Feature", "properties": { "uuid": 288, "name": "해커스어학원강남제3별관학원", "lon": 127.0257595, "lat": 37.4985613 }, "geometry": { "type": "Point", "coordinates": [ 127.0257595, 37.4985613 ] } },
{ "type": "Feature", "properties": { "uuid": 289, "name": "아트피디어미술교습소", "lon": 127.0174633, "lat": 37.4999252 }, "geometry": { "type": "Point", "coordinates": [ 127.0174633, 37.4999252 ] } },
{ "type": "Feature", "properties": { "uuid": 290, "name": "방배해법영어교습소", "lon": 126.9870974, "lat": 37.4865225 }, "geometry": { "type": "Point", "coordinates": [ 126.9870974, 37.4865225 ] } },
{ "type": "Feature", "properties": { "uuid": 291, "name": "알앤디잉글리쉬(R&D English)학원", "lon": 127.0102248, "lat": 37.5008109 }, "geometry": { "type": "Point", "coordinates": [ 127.0102248, 37.5008109 ] } },
{ "type": "Feature", "properties": { "uuid": 292, "name": "아세아실용음악학원", "lon": 126.997063, "lat": 37.4828591 }, "geometry": { "type": "Point", "coordinates": [ 126.997063, 37.4828591 ] } },
{ "type": "Feature", "properties": { "uuid": 293, "name": "노정현수학반포본원학원", "lon": 127.0105381, "lat": 37.5027778 }, "geometry": { "type": "Point", "coordinates": [ 127.0105381, 37.5027778 ] } },
{ "type": "Feature", "properties": { "uuid": 294, "name": "제이플로리스트학원", "lon": 126.9963681, "lat": 37.4840877 }, "geometry": { "type": "Point", "coordinates": [ 126.9963681, 37.4840877 ] } },
{ "type": "Feature", "properties": { "uuid": 295, "name": "튜티음악교습소", "lon": 127.0130338, "lat": 37.518531 }, "geometry": { "type": "Point", "coordinates": [ 127.0130338, 37.518531 ] } },
{ "type": "Feature", "properties": { "uuid": 296, "name": "와일본어교육원일본어교습소", "lon": 127.0034252, "lat": 37.506106 }, "geometry": { "type": "Point", "coordinates": [ 127.0034252, 37.506106 ] } },
{ "type": "Feature", "properties": { "uuid": 297, "name": "리드101잠원반원학원", "lon": 127.0035592, "lat": 37.5087922 }, "geometry": { "type": "Point", "coordinates": [ 127.0035592, 37.5087922 ] } },
{ "type": "Feature", "properties": { "uuid": 298, "name": "허은주국어교습소", "lon": 127.0190881, "lat": 37.498479 }, "geometry": { "type": "Point", "coordinates": [ 127.0190881, 37.498479 ] } },
{ "type": "Feature", "properties": { "uuid": 299, "name": "엠플러스수학학원", "lon": 126.9858162, "lat": 37.4876108 }, "geometry": { "type": "Point", "coordinates": [ 126.9858162, 37.4876108 ] } },
{ "type": "Feature", "properties": { "uuid": 300, "name": "서초1관정상어학원", "lon": 127.0116466, "lat": 37.5010571 }, "geometry": { "type": "Point", "coordinates": [ 127.0116466, 37.5010571 ] } },
{ "type": "Feature", "properties": { "uuid": 301, "name": "서초심슨학원", "lon": 127.0174633, "lat": 37.4999252 }, "geometry": { "type": "Point", "coordinates": [ 127.0174633, 37.4999252 ] } },
{ "type": "Feature", "properties": { "uuid": 302, "name": "서순영국어논술학원", "lon": 126.9823825, "lat": 37.4831661 }, "geometry": { "type": "Point", "coordinates": [ 126.9823825, 37.4831661 ] } },
{ "type": "Feature", "properties": { "uuid": 303, "name": "블루북스리딩학원", "lon": 127.0098927, "lat": 37.5071155 }, "geometry": { "type": "Point", "coordinates": [ 127.0098927, 37.5071155 ] } },
{ "type": "Feature", "properties": { "uuid": 304, "name": "노리터(Noriter)잉글리시영어교습소", "lon": 126.9882964, "lat": 37.4932005 }, "geometry": { "type": "Point", "coordinates": [ 126.9882964, 37.4932005 ] } },
{ "type": "Feature", "properties": { "uuid": 306, "name": "성음피아노교습소", "lon": 126.996184, "lat": 37.4851764 }, "geometry": { "type": "Point", "coordinates": [ 126.996184, 37.4851764 ] } },
{ "type": "Feature", "properties": { "uuid": 307, "name": "열린생각서초수학교습소", "lon": 127.0098364, "lat": 37.48312 }, "geometry": { "type": "Point", "coordinates": [ 127.0098364, 37.48312 ] } },
{ "type": "Feature", "properties": { "uuid": 308, "name": "세린(S.E.C)어학원", "lon": 126.99166, "lat": 37.4903009 }, "geometry": { "type": "Point", "coordinates": [ 126.99166, 37.4903009 ] } },
{ "type": "Feature", "properties": { "uuid": 309, "name": "에이치씨엠에스학원", "lon": 126.9854783, "lat": 37.479156 }, "geometry": { "type": "Point", "coordinates": [ 126.9854783, 37.479156 ] } },
{ "type": "Feature", "properties": { "uuid": 310, "name": "아레네스(R&S)수학전문학원", "lon": 126.9940788, "lat": 37.4886996 }, "geometry": { "type": "Point", "coordinates": [ 126.9940788, 37.4886996 ] } },
{ "type": "Feature", "properties": { "uuid": 311, "name": "에프엑스(f(x))수학학원", "lon": 127.0072892, "lat": 37.5072738 }, "geometry": { "type": "Point", "coordinates": [ 127.0072892, 37.5072738 ] } },
{ "type": "Feature", "properties": { "uuid": 312, "name": "선바이올린교습소", "lon": 127.0259319, "lat": 37.4922553 }, "geometry": { "type": "Point", "coordinates": [ 127.0259319, 37.4922553 ] } },
{ "type": "Feature", "properties": { "uuid": 313, "name": "예랑미술학원", "lon": 127.0235582, "lat": 37.4713223 }, "geometry": { "type": "Point", "coordinates": [ 127.0235582, 37.4713223 ] } },
{ "type": "Feature", "properties": { "uuid": 314, "name": "대한논리방배학원", "lon": 126.9956206, "lat": 37.4841804 }, "geometry": { "type": "Point", "coordinates": [ 126.9956206, 37.4841804 ] } },
{ "type": "Feature", "properties": { "uuid": 315, "name": "멘토수학전문교습소", "lon": 126.9894806, "lat": 37.4925979 }, "geometry": { "type": "Point", "coordinates": [ 126.9894806, 37.4925979 ] } },
{ "type": "Feature", "properties": { "uuid": 316, "name": "지승학원", "lon": 126.9830606, "lat": 37.4906957 }, "geometry": { "type": "Point", "coordinates": [ 126.9830606, 37.4906957 ] } },
{ "type": "Feature", "properties": { "uuid": 317, "name": "에이플영어학원", "lon": 127.0454002, "lat": 37.4721856 }, "geometry": { "type": "Point", "coordinates": [ 127.0454002, 37.4721856 ] } },
{ "type": "Feature", "properties": { "uuid": 318, "name": "튼튼영어서초3동마스터클럽영어교습소", "lon": 127.0087712, "lat": 37.4875713 }, "geometry": { "type": "Point", "coordinates": [ 127.0087712, 37.4875713 ] } },
{ "type": "Feature", "properties": { "uuid": 319, "name": "솔기타교습소", "lon": 126.9954312, "lat": 37.4831246 }, "geometry": { "type": "Point", "coordinates": [ 126.9954312, 37.4831246 ] } },
{ "type": "Feature", "properties": { "uuid": 320, "name": "잉글리쉬부띠끄어학원", "lon": 127.0102675, "lat": 37.5010005 }, "geometry": { "type": "Point", "coordinates": [ 127.0102675, 37.5010005 ] } },
{ "type": "Feature", "properties": { "uuid": 321, "name": "문사탐학원", "lon": 127.0150671, "lat": 37.4963732 }, "geometry": { "type": "Point", "coordinates": [ 127.0150671, 37.4963732 ] } },
{ "type": "Feature", "properties": { "uuid": 322, "name": "이지솔루션학원", "lon": 127.0052559, "lat": 37.4823517 }, "geometry": { "type": "Point", "coordinates": [ 127.0052559, 37.4823517 ] } },
{ "type": "Feature", "properties": { "uuid": 323, "name": "선과색미술교습소", "lon": 127.0000656, "lat": 37.4772981 }, "geometry": { "type": "Point", "coordinates": [ 127.0000656, 37.4772981 ] } },
{ "type": "Feature", "properties": { "uuid": 324, "name": "아이엘음악학원", "lon": 126.9894204, "lat": 37.4953816 }, "geometry": { "type": "Point", "coordinates": [ 126.9894204, 37.4953816 ] } },
{ "type": "Feature", "properties": { "uuid": 325, "name": "예향피아노교습소", "lon": 127.0393573, "lat": 37.4823546 }, "geometry": { "type": "Point", "coordinates": [ 127.0393573, 37.4823546 ] } },
{ "type": "Feature", "properties": { "uuid": 326, "name": "수아체학원", "lon": 126.9965901, "lat": 37.4835579 }, "geometry": { "type": "Point", "coordinates": [ 126.9965901, 37.4835579 ] } },
{ "type": "Feature", "properties": { "uuid": 327, "name": "케이디(KD)영어전문학원", "lon": 127.0083647, "lat": 37.4832519 }, "geometry": { "type": "Point", "coordinates": [ 127.0083647, 37.4832519 ] } },
{ "type": "Feature", "properties": { "uuid": 328, "name": "펜타스과학전문학원", "lon": 127.0021861, "lat": 37.5057261 }, "geometry": { "type": "Point", "coordinates": [ 127.0021861, 37.5057261 ] } },
{ "type": "Feature", "properties": { "uuid": 329, "name": "뮤직스트리트음악교습소", "lon": 126.9851703, "lat": 37.4801896 }, "geometry": { "type": "Point", "coordinates": [ 126.9851703, 37.4801896 ] } },
{ "type": "Feature", "properties": { "uuid": 330, "name": "뮤니크피아노교습소", "lon": 127.0104456, "lat": 37.5003622 }, "geometry": { "type": "Point", "coordinates": [ 127.0104456, 37.5003622 ] } },
{ "type": "Feature", "properties": { "uuid": 331, "name": "이이엘씨(eelc)킨더어학원", "lon": 127.009672, "lat": 37.5032751 }, "geometry": { "type": "Point", "coordinates": [ 127.009672, 37.5032751 ] } },
{ "type": "Feature", "properties": { "uuid": 332, "name": "피아노사랑음악교습소", "lon": 127.0174633, "lat": 37.4999252 }, "geometry": { "type": "Point", "coordinates": [ 127.0174633, 37.4999252 ] } },
{ "type": "Feature", "properties": { "uuid": 333, "name": "선생님따라잡기학원", "lon": 127.0174633, "lat": 37.4999252 }, "geometry": { "type": "Point", "coordinates": [ 127.0174633, 37.4999252 ] } },
{ "type": "Feature", "properties": { "uuid": 334, "name": "훈수학교습소", "lon": 126.9869203, "lat": 37.5021451 }, "geometry": { "type": "Point", "coordinates": [ 126.9869203, 37.5021451 ] } },
{ "type": "Feature", "properties": { "uuid": 335, "name": "제네시스수학학원", "lon": 126.9921868, "lat": 37.5041184 }, "geometry": { "type": "Point", "coordinates": [ 126.9921868, 37.5041184 ] } },
{ "type": "Feature", "properties": { "uuid": 336, "name": "서초연세피아노교습소", "lon": 127.0174633, "lat": 37.4999252 }, "geometry": { "type": "Point", "coordinates": [ 127.0174633, 37.4999252 ] } },
{ "type": "Feature", "properties": { "uuid": 337, "name": "서초삼호해법수학교습소", "lon": 127.020749, "lat": 37.501196 }, "geometry": { "type": "Point", "coordinates": [ 127.020749, 37.501196 ] } },
{ "type": "Feature", "properties": { "uuid": 338, "name": "티아이연기학원", "lon": 127.0186302, "lat": 37.5161808 }, "geometry": { "type": "Point", "coordinates": [ 127.0186302, 37.5161808 ] } },
{ "type": "Feature", "properties": { "uuid": 339, "name": "천년의미소미술학원", "lon": 126.9978229, "lat": 37.4818384 }, "geometry": { "type": "Point", "coordinates": [ 126.9978229, 37.4818384 ] } },
{ "type": "Feature", "properties": { "uuid": 340, "name": "튼튼영어마스터클럽이상수학학원", "lon": 127.0217403, "lat": 37.5015015 }, "geometry": { "type": "Point", "coordinates": [ 127.0217403, 37.5015015 ] } },
{ "type": "Feature", "properties": { "uuid": 341, "name": "비너세움아카데미학원", "lon": 127.0333061, "lat": 37.4851435 }, "geometry": { "type": "Point", "coordinates": [ 127.0333061, 37.4851435 ] } },
{ "type": "Feature", "properties": { "uuid": 342, "name": "존앤섹션아카데미코리아학원", "lon": 127.0167676, "lat": 37.51503 }, "geometry": { "type": "Point", "coordinates": [ 127.0167676, 37.51503 ] } },
{ "type": "Feature", "properties": { "uuid": 343, "name": "반포비전매쓰학원", "lon": 127.0072892, "lat": 37.5072738 }, "geometry": { "type": "Point", "coordinates": [ 127.0072892, 37.5072738 ] } },
{ "type": "Feature", "properties": { "uuid": 344, "name": "이탑수학교습소", "lon": 127.0115158, "lat": 37.5144095 }, "geometry": { "type": "Point", "coordinates": [ 127.0115158, 37.5144095 ] } },
{ "type": "Feature", "properties": { "uuid": 345, "name": "빅토리아잉글리쉬영어교습소", "lon": 126.999775, "lat": 37.4795933 }, "geometry": { "type": "Point", "coordinates": [ 126.999775, 37.4795933 ] } },
{ "type": "Feature", "properties": { "uuid": 346, "name": "이에스엘(E.S.L)영어학원", "lon": 127.026533, "lat": 37.4877641 }, "geometry": { "type": "Point", "coordinates": [ 127.026533, 37.4877641 ] } },
{ "type": "Feature", "properties": { "uuid": 347, "name": "권박사학원", "lon": 127.0011202, "lat": 37.5059333 }, "geometry": { "type": "Point", "coordinates": [ 127.0011202, 37.5059333 ] } },
{ "type": "Feature", "properties": { "uuid": 348, "name": "김쌤최강영어교습소", "lon": 126.9834198, "lat": 37.491726 }, "geometry": { "type": "Point", "coordinates": [ 126.9834198, 37.491726 ] } },
{ "type": "Feature", "properties": { "uuid": 349, "name": "아렌디독서논술교습소", "lon": 127.0259319, "lat": 37.4922553 }, "geometry": { "type": "Point", "coordinates": [ 127.0259319, 37.4922553 ] } },
{ "type": "Feature", "properties": { "uuid": 350, "name": "전원주니어미술학원", "lon": 127.0008014, "lat": 37.5043898 }, "geometry": { "type": "Point", "coordinates": [ 127.0008014, 37.5043898 ] } },
{ "type": "Feature", "properties": { "uuid": 351, "name": "알타이탈리아어학원", "lon": 127.0172563, "lat": 37.4932828 }, "geometry": { "type": "Point", "coordinates": [ 127.0172563, 37.4932828 ] } },
{ "type": "Feature", "properties": { "uuid": 352, "name": "스카이엠(SKYM)수학학원", "lon": 127.0440268, "lat": 37.473499 }, "geometry": { "type": "Point", "coordinates": [ 127.0440268, 37.473499 ] } },
{ "type": "Feature", "properties": { "uuid": 353, "name": "서연고학원", "lon": 127.0041177, "lat": 37.4829188 }, "geometry": { "type": "Point", "coordinates": [ 127.0041177, 37.4829188 ] } },
{ "type": "Feature", "properties": { "uuid": 354, "name": "가람하지혜언어전문학원", "lon": 126.9949492, "lat": 37.4861931 }, "geometry": { "type": "Point", "coordinates": [ 126.9949492, 37.4861931 ] } },
{ "type": "Feature", "properties": { "uuid": 355, "name": "사파사진학원", "lon": 127.0149656, "lat": 37.4920473 }, "geometry": { "type": "Point", "coordinates": [ 127.0149656, 37.4920473 ] } },
{ "type": "Feature", "properties": { "uuid": 356, "name": "엘림영어교습소", "lon": 127.0115158, "lat": 37.5144095 }, "geometry": { "type": "Point", "coordinates": [ 127.0115158, 37.5144095 ] } },
{ "type": "Feature", "properties": { "uuid": 357, "name": "잼실용음악학원", "lon": 126.9821765, "lat": 37.4750098 }, "geometry": { "type": "Point", "coordinates": [ 126.9821765, 37.4750098 ] } },
{ "type": "Feature", "properties": { "uuid": 358, "name": "맨투스명성학원", "lon": 127.0174633, "lat": 37.4999252 }, "geometry": { "type": "Point", "coordinates": [ 127.0174633, 37.4999252 ] } },
{ "type": "Feature", "properties": { "uuid": 359, "name": "한국발레하우스무용학원", "lon": 126.993106, "lat": 37.4803025 }, "geometry": { "type": "Point", "coordinates": [ 126.993106, 37.4803025 ] } },
{ "type": "Feature", "properties": { "uuid": 360, "name": "놀이공작실미술교습소", "lon": 127.0276521, "lat": 37.4886653 }, "geometry": { "type": "Point", "coordinates": [ 127.0276521, 37.4886653 ] } },
{ "type": "Feature", "properties": { "uuid": 361, "name": "미술로생각하기학원", "lon": 127.0252999, "lat": 37.49216 }, "geometry": { "type": "Point", "coordinates": [ 127.0252999, 37.49216 ] } },
{ "type": "Feature", "properties": { "uuid": 362, "name": "눈높이러닝센터방배제1보습학원", "lon": 126.9949526, "lat": 37.4850938 }, "geometry": { "type": "Point", "coordinates": [ 126.9949526, 37.4850938 ] } },
{ "type": "Feature", "properties": { "uuid": 363, "name": "이지엠학원", "lon": 127.0474431, "lat": 37.4724454 }, "geometry": { "type": "Point", "coordinates": [ 127.0474431, 37.4724454 ] } },
{ "type": "Feature", "properties": { "uuid": 364, "name": "엔조이씨지(Enjoy CG)학원", "lon": 127.0139417, "lat": 37.4890743 }, "geometry": { "type": "Point", "coordinates": [ 127.0139417, 37.4890743 ] } },
{ "type": "Feature", "properties": { "uuid": 365, "name": "생각하는힘수학교습소", "lon": 127.0174633, "lat": 37.4999252 }, "geometry": { "type": "Point", "coordinates": [ 127.0174633, 37.4999252 ] } },
{ "type": "Feature", "properties": { "uuid": 366, "name": "루이독서논술교습소", "lon": 127.0464189, "lat": 37.4720857 }, "geometry": { "type": "Point", "coordinates": [ 127.0464189, 37.4720857 ] } },
{ "type": "Feature", "properties": { "uuid": 367, "name": "능률주니어랩학원", "lon": 127.0441187, "lat": 37.4698325 }, "geometry": { "type": "Point", "coordinates": [ 127.0441187, 37.4698325 ] } },
{ "type": "Feature", "properties": { "uuid": 368, "name": "이강토혁신수학교습소", "lon": 127.0000656, "lat": 37.4772981 }, "geometry": { "type": "Point", "coordinates": [ 127.0000656, 37.4772981 ] } },
{ "type": "Feature", "properties": { "uuid": 369, "name": "한올국어논술학원", "lon": 126.9831702, "lat": 37.4942918 }, "geometry": { "type": "Point", "coordinates": [ 126.9831702, 37.4942918 ] } },
{ "type": "Feature", "properties": { "uuid": 370, "name": "미소꽃예술학원", "lon": 127.0562945, "lat": 37.4473228 }, "geometry": { "type": "Point", "coordinates": [ 127.0562945, 37.4473228 ] } },
{ "type": "Feature", "properties": { "uuid": 371, "name": "토토빌놀이학원", "lon": 127.0102102, "lat": 37.5002071 }, "geometry": { "type": "Point", "coordinates": [ 127.0102102, 37.5002071 ] } },
{ "type": "Feature", "properties": { "uuid": 372, "name": "뮤직필리아음악학원", "lon": 126.9943195, "lat": 37.4850884 }, "geometry": { "type": "Point", "coordinates": [ 126.9943195, 37.4850884 ] } },
{ "type": "Feature", "properties": { "uuid": 373, "name": "수해법수학교습소", "lon": 127.0141834, "lat": 37.5154139 }, "geometry": { "type": "Point", "coordinates": [ 127.0141834, 37.5154139 ] } },
{ "type": "Feature", "properties": { "uuid": 374, "name": "윈첼영어교습소", "lon": 127.0236865, "lat": 37.4970845 }, "geometry": { "type": "Point", "coordinates": [ 127.0236865, 37.4970845 ] } },
{ "type": "Feature", "properties": { "uuid": 375, "name": "케이원건축학원", "lon": 127.0398975, "lat": 37.4843233 }, "geometry": { "type": "Point", "coordinates": [ 127.0398975, 37.4843233 ] } },
{ "type": "Feature", "properties": { "uuid": 376, "name": "뮤직시티실용음악학원", "lon": 126.9830484, "lat": 37.4915966 }, "geometry": { "type": "Point", "coordinates": [ 126.9830484, 37.4915966 ] } },
{ "type": "Feature", "properties": { "uuid": 377, "name": "정수학교습소", "lon": 127.029503, "lat": 37.4863198 }, "geometry": { "type": "Point", "coordinates": [ 127.029503, 37.4863198 ] } },
{ "type": "Feature", "properties": { "uuid": 378, "name": "엠지수학교습소", "lon": 127.0190881, "lat": 37.498479 }, "geometry": { "type": "Point", "coordinates": [ 127.0190881, 37.498479 ] } },
{ "type": "Feature", "properties": { "uuid": 379, "name": "쎄컨투넌영어교습소", "lon": 127.0095874, "lat": 37.4985529 }, "geometry": { "type": "Point", "coordinates": [ 127.0095874, 37.4985529 ] } },
{ "type": "Feature", "properties": { "uuid": 380, "name": "한국전통주교육학원", "lon": 126.9994362, "lat": 37.4812574 }, "geometry": { "type": "Point", "coordinates": [ 126.9994362, 37.4812574 ] } },
{ "type": "Feature", "properties": { "uuid": 381, "name": "(주)누리마루학원", "lon": 127.0174565, "lat": 37.4935367 }, "geometry": { "type": "Point", "coordinates": [ 127.0174565, 37.4935367 ] } },
{ "type": "Feature", "properties": { "uuid": 382, "name": "양재어썸기타학원", "lon": 127.030523, "lat": 37.4852649 }, "geometry": { "type": "Point", "coordinates": [ 127.030523, 37.4852649 ] } },
{ "type": "Feature", "properties": { "uuid": 383, "name": "시대인재반포센터수학스쿨별관학원", "lon": 127.0055318, "lat": 37.5067454 }, "geometry": { "type": "Point", "coordinates": [ 127.0055318, 37.5067454 ] } },
{ "type": "Feature", "properties": { "uuid": 384, "name": "브리꼴라주미술교습소", "lon": 126.9894806, "lat": 37.4925979 }, "geometry": { "type": "Point", "coordinates": [ 126.9894806, 37.4925979 ] } },
{ "type": "Feature", "properties": { "uuid": 385, "name": "홍소랑영어교습소", "lon": 127.0034252, "lat": 37.506106 }, "geometry": { "type": "Point", "coordinates": [ 127.0034252, 37.506106 ] } },
{ "type": "Feature", "properties": { "uuid": 386, "name": "한국예술뷰티아카데미학원", "lon": 127.0214968, "lat": 37.5097621 }, "geometry": { "type": "Point", "coordinates": [ 127.0214968, 37.5097621 ] } },
{ "type": "Feature", "properties": { "uuid": 387, "name": "반포새움학원", "lon": 127.0055318, "lat": 37.5067454 }, "geometry": { "type": "Point", "coordinates": [ 127.0055318, 37.5067454 ] } },
{ "type": "Feature", "properties": { "uuid": 388, "name": "윤선생영어숲반포학원", "lon": 127.0140655, "lat": 37.4951394 }, "geometry": { "type": "Point", "coordinates": [ 127.0140655, 37.4951394 ] } },
{ "type": "Feature", "properties": { "uuid": 389, "name": "애너하임영어교습소", "lon": 126.9894204, "lat": 37.4953816 }, "geometry": { "type": "Point", "coordinates": [ 126.9894204, 37.4953816 ] } },
{ "type": "Feature", "properties": { "uuid": 390, "name": "엔알부동산아카데미학원", "lon": 127.0128276, "lat": 37.4946785 }, "geometry": { "type": "Point", "coordinates": [ 127.0128276, 37.4946785 ] } },
{ "type": "Feature", "properties": { "uuid": 391, "name": "비씨컬리지잇서초어학원", "lon": 127.0160253, "lat": 37.4819463 }, "geometry": { "type": "Point", "coordinates": [ 127.0160253, 37.4819463 ] } },
{ "type": "Feature", "properties": { "uuid": 392, "name": "씨엠에스서초제2본원학원", "lon": 126.983763, "lat": 37.4972794 }, "geometry": { "type": "Point", "coordinates": [ 126.983763, 37.4972794 ] } },
{ "type": "Feature", "properties": { "uuid": 393, "name": "피아이에프(PIF)서초관영어학원", "lon": 127.008196, "lat": 37.4831874 }, "geometry": { "type": "Point", "coordinates": [ 127.008196, 37.4831874 ] } },
{ "type": "Feature", "properties": { "uuid": 394, "name": "위즈무용학원", "lon": 126.9962238, "lat": 37.4830412 }, "geometry": { "type": "Point", "coordinates": [ 126.9962238, 37.4830412 ] } },
{ "type": "Feature", "properties": { "uuid": 395, "name": "에이스요리학원", "lon": 127.0260121, "lat": 37.500014 }, "geometry": { "type": "Point", "coordinates": [ 127.0260121, 37.500014 ] } },
{ "type": "Feature", "properties": { "uuid": 396, "name": "알파수학교습소", "lon": 126.984064, "lat": 37.479225 }, "geometry": { "type": "Point", "coordinates": [ 126.984064, 37.479225 ] } },
{ "type": "Feature", "properties": { "uuid": 397, "name": "미키어학원", "lon": 127.0168364, "lat": 37.4933964 }, "geometry": { "type": "Point", "coordinates": [ 127.0168364, 37.4933964 ] } },
{ "type": "Feature", "properties": { "uuid": 398, "name": "페디아플러스서초학원", "lon": 127.0120964, "lat": 37.5029711 }, "geometry": { "type": "Point", "coordinates": [ 127.0120964, 37.5029711 ] } },
{ "type": "Feature", "properties": { "uuid": 399, "name": "바른입시가인학원", "lon": 127.0109178, "lat": 37.4997174 }, "geometry": { "type": "Point", "coordinates": [ 127.0109178, 37.4997174 ] } },
{ "type": "Feature", "properties": { "uuid": 400, "name": "서울리체피아노교습소", "lon": 127.0120964, "lat": 37.5029711 }, "geometry": { "type": "Point", "coordinates": [ 127.0120964, 37.5029711 ] } },
{ "type": "Feature", "properties": { "uuid": 401, "name": "정앤정잉글리쉬클럽영어교습소", "lon": 127.0214472, "lat": 37.4936329 }, "geometry": { "type": "Point", "coordinates": [ 127.0214472, 37.4936329 ] } },
{ "type": "Feature", "properties": { "uuid": 402, "name": "이해법양재우성점수학교습소", "lon": 127.0320719, "lat": 37.4747623 }, "geometry": { "type": "Point", "coordinates": [ 127.0320719, 37.4747623 ] } },
{ "type": "Feature", "properties": { "uuid": 403, "name": "제이비잉글리쉬영어교습소", "lon": 127.0101908, "lat": 37.5025316 }, "geometry": { "type": "Point", "coordinates": [ 127.0101908, 37.5025316 ] } },
{ "type": "Feature", "properties": { "uuid": 404, "name": "아이비(IVY)독서실", "lon": 127.0239744, "lat": 37.4984294 }, "geometry": { "type": "Point", "coordinates": [ 127.0239744, 37.4984294 ] } },
{ "type": "Feature", "properties": { "uuid": 405, "name": "반포지니엠국어학원", "lon": 127.0011202, "lat": 37.5059333 }, "geometry": { "type": "Point", "coordinates": [ 127.0011202, 37.5059333 ] } },
{ "type": "Feature", "properties": { "uuid": 406, "name": "경사모경매학원", "lon": 127.012825, "lat": 37.4880017 }, "geometry": { "type": "Point", "coordinates": [ 127.012825, 37.4880017 ] } },
{ "type": "Feature", "properties": { "uuid": 407, "name": "실버베리토탈악세서리학원", "lon": 127.0202372, "lat": 37.5100761 }, "geometry": { "type": "Point", "coordinates": [ 127.0202372, 37.5100761 ] } },
{ "type": "Feature", "properties": { "uuid": 408, "name": "이주미영어교습소", "lon": 127.0276521, "lat": 37.4886653 }, "geometry": { "type": "Point", "coordinates": [ 127.0276521, 37.4886653 ] } },
{ "type": "Feature", "properties": { "uuid": 409, "name": "기타빌리지기타교습소", "lon": 126.9877635, "lat": 37.496656 }, "geometry": { "type": "Point", "coordinates": [ 126.9877635, 37.496656 ] } },
{ "type": "Feature", "properties": { "uuid": 410, "name": "유디간호학원", "lon": 127.0416584, "lat": 37.4801296 }, "geometry": { "type": "Point", "coordinates": [ 127.0416584, 37.4801296 ] } },
{ "type": "Feature", "properties": { "uuid": 411, "name": "로고스영수전문학원", "lon": 126.9887935, "lat": 37.4781302 }, "geometry": { "type": "Point", "coordinates": [ 126.9887935, 37.4781302 ] } },
{ "type": "Feature", "properties": { "uuid": 412, "name": "에스비에스(SBS)방송아카데미문화예술원 서초캠퍼스학원", "lon": 126.9885892, "lat": 37.4865803 }, "geometry": { "type": "Point", "coordinates": [ 126.9885892, 37.4865803 ] } },
{ "type": "Feature", "properties": { "uuid": 413, "name": "모던케이실용음악학원", "lon": 126.9821608, "lat": 37.4786679 }, "geometry": { "type": "Point", "coordinates": [ 126.9821608, 37.4786679 ] } },
{ "type": "Feature", "properties": { "uuid": 414, "name": "와이제이클라식(YJKlassik)피아노교습소", "lon": 127.0000656, "lat": 37.4772981 }, "geometry": { "type": "Point", "coordinates": [ 127.0000656, 37.4772981 ] } },
{ "type": "Feature", "properties": { "uuid": 415, "name": "아트앤디자인미술교습소", "lon": 127.0500995, "lat": 37.4715837 }, "geometry": { "type": "Point", "coordinates": [ 127.0500995, 37.4715837 ] } },
{ "type": "Feature", "properties": { "uuid": 416, "name": "리얼수학학원", "lon": 127.0112172, "lat": 37.5010265 }, "geometry": { "type": "Point", "coordinates": [ 127.0112172, 37.5010265 ] } },
{ "type": "Feature", "properties": { "uuid": 417, "name": "오드실용음악아카데미학원", "lon": 126.9855618, "lat": 37.4855181 }, "geometry": { "type": "Point", "coordinates": [ 126.9855618, 37.4855181 ] } },
{ "type": "Feature", "properties": { "uuid": 418, "name": "노노스창업교육학원", "lon": 127.0384429, "lat": 37.480482 }, "geometry": { "type": "Point", "coordinates": [ 127.0384429, 37.480482 ] } },
{ "type": "Feature", "properties": { "uuid": 419, "name": "아트피아연기학원", "lon": 126.9822277, "lat": 37.4804075 }, "geometry": { "type": "Point", "coordinates": [ 126.9822277, 37.4804075 ] } },
{ "type": "Feature", "properties": { "uuid": 420, "name": "빛미술교습소", "lon": 126.9956953, "lat": 37.5030941 }, "geometry": { "type": "Point", "coordinates": [ 126.9956953, 37.5030941 ] } },
{ "type": "Feature", "properties": { "uuid": 421, "name": "아트포마인드미술교습소", "lon": 127.0259319, "lat": 37.4922553 }, "geometry": { "type": "Point", "coordinates": [ 127.0259319, 37.4922553 ] } },
{ "type": "Feature", "properties": { "uuid": 422, "name": "아트슈에뜨화실(artchouette)미술교습소", "lon": 126.9965569, "lat": 37.4860355 }, "geometry": { "type": "Point", "coordinates": [ 126.9965569, 37.4860355 ] } },
{ "type": "Feature", "properties": { "uuid": 423, "name": "서초잠원이(e)해법수학교습소", "lon": 127.0014445, "lat": 37.5096033 }, "geometry": { "type": "Point", "coordinates": [ 127.0014445, 37.5096033 ] } },
{ "type": "Feature", "properties": { "uuid": 424, "name": "투탑과학수학전문학원", "lon": 127.0041915, "lat": 37.4824689 }, "geometry": { "type": "Point", "coordinates": [ 127.0041915, 37.4824689 ] } },
{ "type": "Feature", "properties": { "uuid": 425, "name": "박상준영어교습소", "lon": 126.9991399, "lat": 37.4797321 }, "geometry": { "type": "Point", "coordinates": [ 126.9991399, 37.4797321 ] } },
{ "type": "Feature", "properties": { "uuid": 426, "name": "뮤즈음악학원", "lon": 126.9880473, "lat": 37.4957393 }, "geometry": { "type": "Point", "coordinates": [ 126.9880473, 37.4957393 ] } },
{ "type": "Feature", "properties": { "uuid": 427, "name": "수아체2관학원", "lon": 127.0042389, "lat": 37.4823071 }, "geometry": { "type": "Point", "coordinates": [ 127.0042389, 37.4823071 ] } },
{ "type": "Feature", "properties": { "uuid": 428, "name": "천지수학교습소", "lon": 127.0120964, "lat": 37.5029711 }, "geometry": { "type": "Point", "coordinates": [ 127.0120964, 37.5029711 ] } },
{ "type": "Feature", "properties": { "uuid": 429, "name": "서초덕스어학원", "lon": 127.011213, "lat": 37.5004858 }, "geometry": { "type": "Point", "coordinates": [ 127.011213, 37.5004858 ] } },
{ "type": "Feature", "properties": { "uuid": 430, "name": "첼로이야기음악교습소", "lon": 127.0014445, "lat": 37.5096033 }, "geometry": { "type": "Point", "coordinates": [ 127.0014445, 37.5096033 ] } },
{ "type": "Feature", "properties": { "uuid": 431, "name": "코렉트영어학원", "lon": 127.0098927, "lat": 37.5071155 }, "geometry": { "type": "Point", "coordinates": [ 127.0098927, 37.5071155 ] } },
{ "type": "Feature", "properties": { "uuid": 432, "name": "리드101영어학원", "lon": 126.9956953, "lat": 37.5030941 }, "geometry": { "type": "Point", "coordinates": [ 126.9956953, 37.5030941 ] } },
{ "type": "Feature", "properties": { "uuid": 433, "name": "하모니음악학원", "lon": 126.9865979, "lat": 37.4942041 }, "geometry": { "type": "Point", "coordinates": [ 126.9865979, 37.4942041 ] } },
{ "type": "Feature", "properties": { "uuid": 434, "name": "드림보컬실용음악학원", "lon": 127.0260121, "lat": 37.500014 }, "geometry": { "type": "Point", "coordinates": [ 127.0260121, 37.500014 ] } },
{ "type": "Feature", "properties": { "uuid": 435, "name": "우지은더블유(W)스피치학원", "lon": 127.0267067, "lat": 37.4987763 }, "geometry": { "type": "Point", "coordinates": [ 127.0267067, 37.4987763 ] } },
{ "type": "Feature", "properties": { "uuid": 436, "name": "참수학교습소", "lon": 127.0259319, "lat": 37.4922553 }, "geometry": { "type": "Point", "coordinates": [ 127.0259319, 37.4922553 ] } },
{ "type": "Feature", "properties": { "uuid": 437, "name": "엘에스에이에듀어학원", "lon": 127.0101396, "lat": 37.5029817 }, "geometry": { "type": "Point", "coordinates": [ 127.0101396, 37.5029817 ] } },
{ "type": "Feature", "properties": { "uuid": 438, "name": "배쓰그만창의미술학원", "lon": 127.0111962, "lat": 37.5017651 }, "geometry": { "type": "Point", "coordinates": [ 127.0111962, 37.5017651 ] } },
{ "type": "Feature", "properties": { "uuid": 439, "name": "샵(#)음악교습소", "lon": 126.9877635, "lat": 37.496656 }, "geometry": { "type": "Point", "coordinates": [ 126.9877635, 37.496656 ] } },
{ "type": "Feature", "properties": { "uuid": 440, "name": "빅토리입시LAB진학상담지도학원", "lon": 126.9864195, "lat": 37.4981942 }, "geometry": { "type": "Point", "coordinates": [ 126.9864195, 37.4981942 ] } },
{ "type": "Feature", "properties": { "uuid": 441, "name": "조엘피아노음악학원", "lon": 126.9854378, "lat": 37.4938518 }, "geometry": { "type": "Point", "coordinates": [ 126.9854378, 37.4938518 ] } },
{ "type": "Feature", "properties": { "uuid": 442, "name": "최상위해법영어수학의달인학원", "lon": 127.0329323, "lat": 37.4746702 }, "geometry": { "type": "Point", "coordinates": [ 127.0329323, 37.4746702 ] } },
{ "type": "Feature", "properties": { "uuid": 443, "name": "논변과소통논술교습소", "lon": 127.0150422, "lat": 37.4931021 }, "geometry": { "type": "Point", "coordinates": [ 127.0150422, 37.4931021 ] } },
{ "type": "Feature", "properties": { "uuid": 444, "name": "오라클자바교육학원", "lon": 126.9822555, "lat": 37.4808583 }, "geometry": { "type": "Point", "coordinates": [ 126.9822555, 37.4808583 ] } },
{ "type": "Feature", "properties": { "uuid": 445, "name": "서래에꼴드뮤직학원", "lon": 126.9979501, "lat": 37.4977069 }, "geometry": { "type": "Point", "coordinates": [ 126.9979501, 37.4977069 ] } },
{ "type": "Feature", "properties": { "uuid": 446, "name": "수학에미친사람들반포관학원", "lon": 127.0113838, "lat": 37.5021181 }, "geometry": { "type": "Point", "coordinates": [ 127.0113838, 37.5021181 ] } },
{ "type": "Feature", "properties": { "uuid": 447, "name": "서율학원", "lon": 127.011213, "lat": 37.5004858 }, "geometry": { "type": "Point", "coordinates": [ 127.011213, 37.5004858 ] } },
{ "type": "Feature", "properties": { "uuid": 448, "name": "더베스트영어교습소", "lon": 127.0440268, "lat": 37.473499 }, "geometry": { "type": "Point", "coordinates": [ 127.0440268, 37.473499 ] } },
{ "type": "Feature", "properties": { "uuid": 449, "name": "조은수학학원", "lon": 127.0146492, "lat": 37.5152647 }, "geometry": { "type": "Point", "coordinates": [ 127.0146492, 37.5152647 ] } },
{ "type": "Feature", "properties": { "uuid": 450, "name": "자라나는미술교습소", "lon": 126.987741, "lat": 37.4865911 }, "geometry": { "type": "Point", "coordinates": [ 126.987741, 37.4865911 ] } },
{ "type": "Feature", "properties": { "uuid": 451, "name": "연세자이음악교습소", "lon": 127.0098927, "lat": 37.5071155 }, "geometry": { "type": "Point", "coordinates": [ 127.0098927, 37.5071155 ] } },
{ "type": "Feature", "properties": { "uuid": 452, "name": "이화성악교습소", "lon": 127.0034252, "lat": 37.506106 }, "geometry": { "type": "Point", "coordinates": [ 127.0034252, 37.506106 ] } },
{ "type": "Feature", "properties": { "uuid": 453, "name": "플랜팅아트(planting Art)학원", "lon": 127.0138644, "lat": 37.4966695 }, "geometry": { "type": "Point", "coordinates": [ 127.0138644, 37.4966695 ] } },
{ "type": "Feature", "properties": { "uuid": 454, "name": "웅진씽크빅학습센터방배학원", "lon": 126.990073, "lat": 37.4939546 }, "geometry": { "type": "Point", "coordinates": [ 126.990073, 37.4939546 ] } },
{ "type": "Feature", "properties": { "uuid": 455, "name": "에이치엠에이(HMA)수학전문학원", "lon": 127.0091311, "lat": 37.5133984 }, "geometry": { "type": "Point", "coordinates": [ 127.0091311, 37.5133984 ] } },
{ "type": "Feature", "properties": { "uuid": 456, "name": "디엑스수학시즌투학원", "lon": 126.9869203, "lat": 37.5021451 }, "geometry": { "type": "Point", "coordinates": [ 126.9869203, 37.5021451 ] } },
{ "type": "Feature", "properties": { "uuid": 457, "name": "임현미술교습소", "lon": 127.0253957, "lat": 37.4708599 }, "geometry": { "type": "Point", "coordinates": [ 127.0253957, 37.4708599 ] } },
{ "type": "Feature", "properties": { "uuid": 458, "name": "그룹티아이연기학원", "lon": 127.0186302, "lat": 37.5161808 }, "geometry": { "type": "Point", "coordinates": [ 127.0186302, 37.5161808 ] } },
{ "type": "Feature", "properties": { "uuid": 459, "name": "바니아트미술교습소", "lon": 127.0320719, "lat": 37.4747623 }, "geometry": { "type": "Point", "coordinates": [ 127.0320719, 37.4747623 ] } },
{ "type": "Feature", "properties": { "uuid": 460, "name": "샤크에듀학원", "lon": 127.0072892, "lat": 37.5072738 }, "geometry": { "type": "Point", "coordinates": [ 127.0072892, 37.5072738 ] } },
{ "type": "Feature", "properties": { "uuid": 461, "name": "국어신국어교습소", "lon": 127.0140371, "lat": 37.4964367 }, "geometry": { "type": "Point", "coordinates": [ 127.0140371, 37.4964367 ] } },
{ "type": "Feature", "properties": { "uuid": 462, "name": "멘토수학학원", "lon": 126.991401, "lat": 37.4843337 }, "geometry": { "type": "Point", "coordinates": [ 126.991401, 37.4843337 ] } },
{ "type": "Feature", "properties": { "uuid": 463, "name": "(사)공동체사회포럼러닝컴학원", "lon": 127.0194991, "lat": 37.489535 }, "geometry": { "type": "Point", "coordinates": [ 127.0194991, 37.489535 ] } },
{ "type": "Feature", "properties": { "uuid": 464, "name": "리만영재수학교습소", "lon": 127.0259319, "lat": 37.4922553 }, "geometry": { "type": "Point", "coordinates": [ 127.0259319, 37.4922553 ] } },
{ "type": "Feature", "properties": { "uuid": 465, "name": "네오스터디학원", "lon": 127.008056, "lat": 37.5074515 }, "geometry": { "type": "Point", "coordinates": [ 127.008056, 37.5074515 ] } },
{ "type": "Feature", "properties": { "uuid": 466, "name": "서초이엠영어교습소", "lon": 126.9892362, "lat": 37.4956234 }, "geometry": { "type": "Point", "coordinates": [ 126.9892362, 37.4956234 ] } },
{ "type": "Feature", "properties": { "uuid": 467, "name": "마음그림미술교습소", "lon": 127.0311952, "lat": 37.4743587 }, "geometry": { "type": "Point", "coordinates": [ 127.0311952, 37.4743587 ] } },
{ "type": "Feature", "properties": { "uuid": 468, "name": "제이에이치에스(JHS)영재교육학원", "lon": 126.989495, "lat": 37.4948867 }, "geometry": { "type": "Point", "coordinates": [ 126.989495, 37.4948867 ] } },
{ "type": "Feature", "properties": { "uuid": 469, "name": "해커스어학원강남제2별관학원", "lon": 127.025563, "lat": 37.498893 }, "geometry": { "type": "Point", "coordinates": [ 127.025563, 37.498893 ] } },
{ "type": "Feature", "properties": { "uuid": 470, "name": "생각의힘수학학원", "lon": 126.9849788, "lat": 37.4910005 }, "geometry": { "type": "Point", "coordinates": [ 126.9849788, 37.4910005 ] } },
{ "type": "Feature", "properties": { "uuid": 471, "name": "서초이화성악교습소", "lon": 127.0190881, "lat": 37.498479 }, "geometry": { "type": "Point", "coordinates": [ 127.0190881, 37.498479 ] } },
{ "type": "Feature", "properties": { "uuid": 472, "name": "오영주프랑스발레바오솔학원", "lon": 127.0433184, "lat": 37.4802963 }, "geometry": { "type": "Point", "coordinates": [ 127.0433184, 37.4802963 ] } },
{ "type": "Feature", "properties": { "uuid": 473, "name": "바른영어교습소", "lon": 127.0115643, "lat": 37.5012907 }, "geometry": { "type": "Point", "coordinates": [ 127.0115643, 37.5012907 ] } },
{ "type": "Feature", "properties": { "uuid": 474, "name": "윤선생우리집앞영어교실서래영어교습소", "lon": 126.9874554, "lat": 37.4951846 }, "geometry": { "type": "Point", "coordinates": [ 126.9874554, 37.4951846 ] } },
{ "type": "Feature", "properties": { "uuid": 475, "name": "클랩어학원", "lon": 127.0159887, "lat": 37.4881903 }, "geometry": { "type": "Point", "coordinates": [ 127.0159887, 37.4881903 ] } },
{ "type": "Feature", "properties": { "uuid": 476, "name": "루키업스마트해법학원", "lon": 127.0216186, "lat": 37.4856871 }, "geometry": { "type": "Point", "coordinates": [ 127.0216186, 37.4856871 ] } },
{ "type": "Feature", "properties": { "uuid": 477, "name": "이룸(e)학원", "lon": 126.9871492, "lat": 37.5011109 }, "geometry": { "type": "Point", "coordinates": [ 126.9871492, 37.5011109 ] } },
{ "type": "Feature", "properties": { "uuid": 478, "name": "삼성영어방배직영학원", "lon": 126.9893334, "lat": 37.4951286 }, "geometry": { "type": "Point", "coordinates": [ 126.9893334, 37.4951286 ] } },
{ "type": "Feature", "properties": { "uuid": 479, "name": "한국광속독교습소", "lon": 126.9946115, "lat": 37.4801712 }, "geometry": { "type": "Point", "coordinates": [ 126.9946115, 37.4801712 ] } },
{ "type": "Feature", "properties": { "uuid": 480, "name": "자이키즈창작미술교습소", "lon": 127.0098927, "lat": 37.5071155 }, "geometry": { "type": "Point", "coordinates": [ 127.0098927, 37.5071155 ] } },
{ "type": "Feature", "properties": { "uuid": 481, "name": "크레용미술교습소", "lon": 126.9845668, "lat": 37.4788328 }, "geometry": { "type": "Point", "coordinates": [ 126.9845668, 37.4788328 ] } },
{ "type": "Feature", "properties": { "uuid": 482, "name": "인투(in2)학원", "lon": 127.0144997, "lat": 37.4948006 }, "geometry": { "type": "Point", "coordinates": [ 127.0144997, 37.4948006 ] } },
{ "type": "Feature", "properties": { "uuid": 483, "name": "유스발레컨서바토리학원", "lon": 127.0126956, "lat": 37.4858021 }, "geometry": { "type": "Point", "coordinates": [ 127.0126956, 37.4858021 ] } },
{ "type": "Feature", "properties": { "uuid": 484, "name": "토커스학원", "lon": 126.9889629, "lat": 37.4865384 }, "geometry": { "type": "Point", "coordinates": [ 126.9889629, 37.4865384 ] } },
{ "type": "Feature", "properties": { "uuid": 485, "name": "해신수학교습소", "lon": 127.0072892, "lat": 37.5072738 }, "geometry": { "type": "Point", "coordinates": [ 127.0072892, 37.5072738 ] } },
{ "type": "Feature", "properties": { "uuid": 486, "name": "민석사영어교습소", "lon": 127.0259319, "lat": 37.4922553 }, "geometry": { "type": "Point", "coordinates": [ 127.0259319, 37.4922553 ] } },
{ "type": "Feature", "properties": { "uuid": 487, "name": "더블유매쓰(W-math)수학교습소", "lon": 127.0259319, "lat": 37.4922553 }, "geometry": { "type": "Point", "coordinates": [ 127.0259319, 37.4922553 ] } },
{ "type": "Feature", "properties": { "uuid": 488, "name": "지메스학원", "lon": 127.0398792, "lat": 37.4716092 }, "geometry": { "type": "Point", "coordinates": [ 127.0398792, 37.4716092 ] } },
{ "type": "Feature", "properties": { "uuid": 489, "name": "삼성영어방배제2직영학원", "lon": 126.9963195, "lat": 37.4843395 }, "geometry": { "type": "Point", "coordinates": [ 126.9963195, 37.4843395 ] } },
{ "type": "Feature", "properties": { "uuid": 490, "name": "이메스터어학원", "lon": 127.0057821, "lat": 37.4827436 }, "geometry": { "type": "Point", "coordinates": [ 127.0057821, 37.4827436 ] } },
{ "type": "Feature", "properties": { "uuid": 491, "name": "메가스터디원격학원", "lon": 127.0191596, "lat": 37.4860992 }, "geometry": { "type": "Point", "coordinates": [ 127.0191596, 37.4860992 ] } },
{ "type": "Feature", "properties": { "uuid": 492, "name": "엠베스트원격학원", "lon": 127.0191596, "lat": 37.4860992 }, "geometry": { "type": "Point", "coordinates": [ 127.0191596, 37.4860992 ] } },
{ "type": "Feature", "properties": { "uuid": 493, "name": "강남부동산아카데미학원", "lon": 127.0131141, "lat": 37.4943926 }, "geometry": { "type": "Point", "coordinates": [ 127.0131141, 37.4943926 ] } },
{ "type": "Feature", "properties": { "uuid": 494, "name": "정성배국어교습소", "lon": 127.0034252, "lat": 37.506106 }, "geometry": { "type": "Point", "coordinates": [ 127.0034252, 37.506106 ] } },
{ "type": "Feature", "properties": { "uuid": 495, "name": "달에서온토끼학원", "lon": 127.0139811, "lat": 37.4903721 }, "geometry": { "type": "Point", "coordinates": [ 127.0139811, 37.4903721 ] } },
{ "type": "Feature", "properties": { "uuid": 497, "name": "피피에스(PPS)수학교습소", "lon": 127.0021861, "lat": 37.5057261 }, "geometry": { "type": "Point", "coordinates": [ 127.0021861, 37.5057261 ] } },
{ "type": "Feature", "properties": { "uuid": 498, "name": "에듀플렉스에듀코치개별지도서초학원", "lon": 127.0104685, "lat": 37.5012004 }, "geometry": { "type": "Point", "coordinates": [ 127.0104685, 37.5012004 ] } },
{ "type": "Feature", "properties": { "uuid": 499, "name": "유카리일본어교습소", "lon": 126.984064, "lat": 37.479225 }, "geometry": { "type": "Point", "coordinates": [ 126.984064, 37.479225 ] } },
{ "type": "Feature", "properties": { "uuid": 500, "name": "서초커피엠비에이아카데미학원", "lon": 127.0089157, "lat": 37.4911857 }, "geometry": { "type": "Point", "coordinates": [ 127.0089157, 37.4911857 ] } },
{ "type": "Feature", "properties": { "uuid": 501, "name": "은성영어교습소", "lon": 127.0034252, "lat": 37.506106 }, "geometry": { "type": "Point", "coordinates": [ 127.0034252, 37.506106 ] } },
{ "type": "Feature", "properties": { "uuid": 502, "name": "샤갈의꿈미술교습소", "lon": 127.0174633, "lat": 37.4999252 }, "geometry": { "type": "Point", "coordinates": [ 127.0174633, 37.4999252 ] } },
{ "type": "Feature", "properties": { "uuid": 503, "name": "창창중국어교습소", "lon": 127.0021861, "lat": 37.5057261 }, "geometry": { "type": "Point", "coordinates": [ 127.0021861, 37.5057261 ] } },
{ "type": "Feature", "properties": { "uuid": 504, "name": "데브기어교육학원", "lon": 127.0222042, "lat": 37.5040914 }, "geometry": { "type": "Point", "coordinates": [ 127.0222042, 37.5040914 ] } },
{ "type": "Feature", "properties": { "uuid": 505, "name": "애플공인교육센터MFK학원", "lon": 127.0188545, "lat": 37.5146059 }, "geometry": { "type": "Point", "coordinates": [ 127.0188545, 37.5146059 ] } },
{ "type": "Feature", "properties": { "uuid": 506, "name": "애프엘씨(FLC)영어교습소", "lon": 126.9858601, "lat": 37.4977479 }, "geometry": { "type": "Point", "coordinates": [ 126.9858601, 37.4977479 ] } },
{ "type": "Feature", "properties": { "uuid": 507, "name": "넘버원헤어아카데미학원", "lon": 127.0077576, "lat": 37.4864095 }, "geometry": { "type": "Point", "coordinates": [ 127.0077576, 37.4864095 ] } },
{ "type": "Feature", "properties": { "uuid": 508, "name": "디지털대성원격학원", "lon": 126.9919413, "lat": 37.4895644 }, "geometry": { "type": "Point", "coordinates": [ 126.9919413, 37.4895644 ] } },
{ "type": "Feature", "properties": { "uuid": 509, "name": "이튼하우스수학교습소", "lon": 127.0194018, "lat": 37.4961119 }, "geometry": { "type": "Point", "coordinates": [ 127.0194018, 37.4961119 ] } },
{ "type": "Feature", "properties": { "uuid": 510, "name": "펀액터스화술학원", "lon": 127.0220294, "lat": 37.4836721 }, "geometry": { "type": "Point", "coordinates": [ 127.0220294, 37.4836721 ] } },
{ "type": "Feature", "properties": { "uuid": 511, "name": "로뎀나무음악학원", "lon": 127.0249649, "lat": 37.4639903 }, "geometry": { "type": "Point", "coordinates": [ 127.0249649, 37.4639903 ] } },
{ "type": "Feature", "properties": { "uuid": 512, "name": "우면한우리독서토론논술교습소", "lon": 127.0232419, "lat": 37.4617505 }, "geometry": { "type": "Point", "coordinates": [ 127.0232419, 37.4617505 ] } },
{ "type": "Feature", "properties": { "uuid": 513, "name": "아트인게임아트(Art in GameArt)학원", "lon": 126.9843988, "lat": 37.4770473 }, "geometry": { "type": "Point", "coordinates": [ 126.9843988, 37.4770473 ] } },
{ "type": "Feature", "properties": { "uuid": 514, "name": "경선식에듀원격학원", "lon": 127.0154629, "lat": 37.4868974 }, "geometry": { "type": "Point", "coordinates": [ 127.0154629, 37.4868974 ] } },
{ "type": "Feature", "properties": { "uuid": 515, "name": "해커스공인중개사주택관리사학원", "lon": 127.0257595, "lat": 37.4985613 }, "geometry": { "type": "Point", "coordinates": [ 127.0257595, 37.4985613 ] } },
{ "type": "Feature", "properties": { "uuid": 517, "name": "일월안전교육학원", "lon": 127.0057703, "lat": 37.4793736 }, "geometry": { "type": "Point", "coordinates": [ 127.0057703, 37.4793736 ] } },
{ "type": "Feature", "properties": { "uuid": 518, "name": "백현우과학전문학원", "lon": 127.0014445, "lat": 37.5096033 }, "geometry": { "type": "Point", "coordinates": [ 127.0014445, 37.5096033 ] } },
{ "type": "Feature", "properties": { "uuid": 519, "name": "(주)씨에이치비학원", "lon": 127.0188717, "lat": 37.5115605 }, "geometry": { "type": "Point", "coordinates": [ 127.0188717, 37.5115605 ] } },
{ "type": "Feature", "properties": { "uuid": 520, "name": "윤영숙수학전문3관학원", "lon": 126.9831156, "lat": 37.4933092 }, "geometry": { "type": "Point", "coordinates": [ 126.9831156, 37.4933092 ] } },
{ "type": "Feature", "properties": { "uuid": 521, "name": "아이엠수학학원", "lon": 126.9869203, "lat": 37.5021451 }, "geometry": { "type": "Point", "coordinates": [ 126.9869203, 37.5021451 ] } },
{ "type": "Feature", "properties": { "uuid": 522, "name": "반포스피커스(Banpospeakers)학원", "lon": 127.0101953, "lat": 37.5004773 }, "geometry": { "type": "Point", "coordinates": [ 127.0101953, 37.5004773 ] } },
{ "type": "Feature", "properties": { "uuid": 523, "name": "반포대학나무학원", "lon": 127.008056, "lat": 37.5074515 }, "geometry": { "type": "Point", "coordinates": [ 127.008056, 37.5074515 ] } },
{ "type": "Feature", "properties": { "uuid": 524, "name": "해법한신영어교습소", "lon": 127.0100772, "lat": 37.5162716 }, "geometry": { "type": "Point", "coordinates": [ 127.0100772, 37.5162716 ] } },
{ "type": "Feature", "properties": { "uuid": 525, "name": "엠앤에스(M&S)수학교습소", "lon": 126.9882964, "lat": 37.4932005 }, "geometry": { "type": "Point", "coordinates": [ 126.9882964, 37.4932005 ] } },
{ "type": "Feature", "properties": { "uuid": 526, "name": "수학의정석원격학원", "lon": 127.0368701, "lat": 37.4823343 }, "geometry": { "type": "Point", "coordinates": [ 127.0368701, 37.4823343 ] } },
{ "type": "Feature", "properties": { "uuid": 527, "name": "윤선생우리집앞서이?서초영어교습소", "lon": 127.0259319, "lat": 37.4922553 }, "geometry": { "type": "Point", "coordinates": [ 127.0259319, 37.4922553 ] } },
{ "type": "Feature", "properties": { "uuid": 529, "name": "네이처힐음악학원", "lon": 127.0262924, "lat": 37.4636048 }, "geometry": { "type": "Point", "coordinates": [ 127.0262924, 37.4636048 ] } },
{ "type": "Feature", "properties": { "uuid": 530, "name": "관인뮤직트리음악학원", "lon": 126.9956953, "lat": 37.5030941 }, "geometry": { "type": "Point", "coordinates": [ 126.9956953, 37.5030941 ] } },
{ "type": "Feature", "properties": { "uuid": 531, "name": "블루스카이수학학원", "lon": 127.0036799, "lat": 37.5082166 }, "geometry": { "type": "Point", "coordinates": [ 127.0036799, 37.5082166 ] } },
{ "type": "Feature", "properties": { "uuid": 532, "name": "송은희클라리넷교습소", "lon": 127.0141834, "lat": 37.5154139 }, "geometry": { "type": "Point", "coordinates": [ 127.0141834, 37.5154139 ] } },
{ "type": "Feature", "properties": { "uuid": 533, "name": "한국스마트속기학원", "lon": 127.0090945, "lat": 37.4930614 },