{
"type": "FeatureCollection",
"name": "daycare",
"crs": { "type": "name", "properties": { "name": "urn:ogc:def:crs:OGC:1.3:CRS84" } },
"features": [
{ "type": "Feature", "properties": { "lat": 37.48522506, "lon": 127.0075886, "name": "명은해어린이집", "uuid": 0 }, "geometry": { "type": "Point", "coordinates": [ 127.0075886, 37.48522506 ] } },
{ "type": "Feature", "properties": { "lat": 37.49067852, "lon": 127.0076433, "name": "서초구립서리풀어린이집", "uuid": 1 }, "geometry": { "type": "Point", "coordinates": [ 127.0076433, 37.49067852 ] } },
{ "type": "Feature", "properties": { "lat": 37.49412713, "lon": 127.0089442, "name": "바름이어린이집", "uuid": 2 }, "geometry": { "type": "Point", "coordinates": [ 127.0089442, 37.49412713 ] } },
{ "type": "Feature", "properties": { "lat": 37.45324434, "lon": 127.0624758, "name": "아기궁전어린이집", "uuid": 3 }, "geometry": { "type": "Point", "coordinates": [ 127.0624758, 37.45324434 ] } },
{ "type": "Feature", "properties": { "lat": 37.45393016, "lon": 127.0626866, "name": "서초더샵포레어린이집", "uuid": 4 }, "geometry": { "type": "Point", "coordinates": [ 127.0626866, 37.45393016 ] } },
{ "type": "Feature", "properties": { "lat": 37.45526014, "lon": 127.0591738, "name": "서초구립포레스타3단지어린이집", "uuid": 5 }, "geometry": { "type": "Point", "coordinates": [ 127.0591738, 37.45526014 ] } },
{ "type": "Feature", "properties": { "lat": 37.44401319, "lon": 127.0621678, "name": "서초구립포레스타7단지어린이집", "uuid": 6 }, "geometry": { "type": "Point", "coordinates": [ 127.0621678, 37.44401319 ] } },
{ "type": "Feature", "properties": { "lat": 37.47329407, "lon": 127.0396384, "name": "서초한별어린이집", "uuid": 7 }, "geometry": { "type": "Point", "coordinates": [ 127.0396384, 37.47329407 ] } },
{ "type": "Feature", "properties": { "lat": 37.47921606, "lon": 127.0396473, "name": "텀블랜드어린이집", "uuid": 8 }, "geometry": { "type": "Point", "coordinates": [ 127.0396473, 37.47921606 ] } },
{ "type": "Feature", "properties": { "lat": 37.48455591, "lon": 127.0406212, "name": "온무리어린이집", "uuid": 9 }, "geometry": { "type": "Point", "coordinates": [ 127.0406212, 37.48455591 ] } },
{ "type": "Feature", "properties": { "lat": 37.48418339, "lon": 127.0284303, "name": "서초장미어린이집", "uuid": 10 }, "geometry": { "type": "Point", "coordinates": [ 127.0284303, 37.48418339 ] } },
{ "type": "Feature", "properties": { "lat": 37.4865758, "lon": 127.0271257, "name": "자연의아이들어린이집", "uuid": 11 }, "geometry": { "type": "Point", "coordinates": [ 127.0271257, 37.4865758 ] } },
{ "type": "Feature", "properties": { "lat": 37.48640351, "lon": 127.0313912, "name": "서초구청어린이집", "uuid": 12 }, "geometry": { "type": "Point", "coordinates": [ 127.0313912, 37.48640351 ] } },
{ "type": "Feature", "properties": { "lat": 37.47243223, "lon": 127.0245798, "name": "햇살담는어린이집", "uuid": 13 }, "geometry": { "type": "Point", "coordinates": [ 127.0245798, 37.47243223 ] } },
{ "type": "Feature", "properties": { "lat": 37.47333318, "lon": 127.0267229, "name": "함께크는어린이집", "uuid": 14 }, "geometry": { "type": "Point", "coordinates": [ 127.0267229, 37.47333318 ] } },
{ "type": "Feature", "properties": { "lat": 37.4874097, "lon": 127.0237949, "name": "푸르니서초어린이집", "uuid": 15 }, "geometry": { "type": "Point", "coordinates": [ 127.0237949, 37.4874097 ] } },
{ "type": "Feature", "properties": { "lat": 37.48900777, "lon": 127.0222237, "name": "서초아이자람어린이집", "uuid": 16 }, "geometry": { "type": "Point", "coordinates": [ 127.0222237, 37.48900777 ] } },
{ "type": "Feature", "properties": { "lat": 37.48821043, "lon": 127.0211995, "name": "푸르니작은어린이집", "uuid": 17 }, "geometry": { "type": "Point", "coordinates": [ 127.0211995, 37.48821043 ] } },
{ "type": "Feature", "properties": { "lat": 37.46717936, "lon": 127.0206325, "name": "성촌어린이집", "uuid": 18 }, "geometry": { "type": "Point", "coordinates": [ 127.0206325, 37.46717936 ] } },
{ "type": "Feature", "properties": { "lat": 37.48766705, "lon": 127.0183524, "name": "락앤락샛별어린이집", "uuid": 19 }, "geometry": { "type": "Point", "coordinates": [ 127.0183524, 37.48766705 ] } },
{ "type": "Feature", "properties": { "lat": 37.49190681, "lon": 127.0169677, "name": "서초연꽃어린이집", "uuid": 20 }, "geometry": { "type": "Point", "coordinates": [ 127.0169677, 37.49190681 ] } },
{ "type": "Feature", "properties": { "lat": 37.4803762, "lon": 127.0208536, "name": "서울시인재개발원쑥쑥어린이집", "uuid": 21 }, "geometry": { "type": "Point", "coordinates": [ 127.0208536, 37.4803762 ] } },
{ "type": "Feature", "properties": { "lat": 37.5099671, "lon": 127.0184581, "name": "반포1동어린이집", "uuid": 22 }, "geometry": { "type": "Point", "coordinates": [ 127.0184581, 37.5099671 ] } },
{ "type": "Feature", "properties": { "lat": 37.51371803, "lon": 127.0165669, "name": "잠원꿈밭어린이집", "uuid": 23 }, "geometry": { "type": "Point", "coordinates": [ 127.0165669, 37.51371803 ] } },
{ "type": "Feature", "properties": { "lat": 37.51966885, "lon": 127.0126357, "name": "베베어린이집", "uuid": 24 }, "geometry": { "type": "Point", "coordinates": [ 127.0126357, 37.51966885 ] } },
{ "type": "Feature", "properties": { "lat": 37.5205341, "lon": 127.0148142, "name": "구립서초사랑어린이집", "uuid": 25 }, "geometry": { "type": "Point", "coordinates": [ 127.0148142, 37.5205341 ] } },
{ "type": "Feature", "properties": { "lat": 37.50104285, "lon": 127.0094985, "name": "서초성모어린이집", "uuid": 26 }, "geometry": { "type": "Point", "coordinates": [ 127.0094985, 37.50104285 ] } },
{ "type": "Feature", "properties": { "lat": 37.48211469, "lon": 127.0052677, "name": "수표교어린이집", "uuid": 27 }, "geometry": { "type": "Point", "coordinates": [ 127.0052677, 37.48211469 ] } },
{ "type": "Feature", "properties": { "lat": 37.50062819, "lon": 127.0051682, "name": "서울성모병원어린이집", "uuid": 28 }, "geometry": { "type": "Point", "coordinates": [ 127.0051682, 37.50062819 ] } },
{ "type": "Feature", "properties": { "lat": 37.47841486, "lon": 126.9999763, "name": "성분도어린이집", "uuid": 29 }, "geometry": { "type": "Point", "coordinates": [ 126.9999763, 37.47841486 ] } },
{ "type": "Feature", "properties": { "lat": 37.47466621, "lon": 127.0002162, "name": "서초어린이집", "uuid": 30 }, "geometry": { "type": "Point", "coordinates": [ 127.0002162, 37.47466621 ] } },
{ "type": "Feature", "properties": { "lat": 37.50595024, "lon": 126.9954707, "name": "서초구립신반포어린이집", "uuid": 31 }, "geometry": { "type": "Point", "coordinates": [ 126.9954707, 37.50595024 ] } },
{ "type": "Feature", "properties": { "lat": 37.49700514, "lon": 126.99673, "name": "반포어린이집", "uuid": 32 }, "geometry": { "type": "Point", "coordinates": [ 126.99673, 37.49700514 ] } },
{ "type": "Feature", "properties": { "lat": 37.48398905, "lon": 126.9945099, "name": "킹스키즈어린이집", "uuid": 33 }, "geometry": { "type": "Point", "coordinates": [ 126.9945099, 37.48398905 ] } },
{ "type": "Feature", "properties": { "lat": 37.48494557, "lon": 126.9926598, "name": "송송어린이집", "uuid": 34 }, "geometry": { "type": "Point", "coordinates": [ 126.9926598, 37.48494557 ] } },
{ "type": "Feature", "properties": { "lat": 37.4850644, "lon": 126.9930435, "name": "방배어린이집", "uuid": 35 }, "geometry": { "type": "Point", "coordinates": [ 126.9930435, 37.4850644 ] } },
{ "type": "Feature", "properties": { "lat": 37.48543753, "lon": 126.993878, "name": "초록나무의꿈어린이집", "uuid": 36 }, "geometry": { "type": "Point", "coordinates": [ 126.993878, 37.48543753 ] } },
{ "type": "Feature", "properties": { "lat": 37.50275868, "lon": 126.9910911, "name": "반포초등어린이집", "uuid": 37 }, "geometry": { "type": "Point", "coordinates": [ 126.9910911, 37.50275868 ] } },
{ "type": "Feature", "properties": { "lat": 37.48308499, "lon": 126.9876051, "name": "새롬키즈어린이집", "uuid": 38 }, "geometry": { "type": "Point", "coordinates": [ 126.9876051, 37.48308499 ] } },
{ "type": "Feature", "properties": { "lat": 37.48445594, "lon": 126.9898919, "name": "방배하나어린이집", "uuid": 39 }, "geometry": { "type": "Point", "coordinates": [ 126.9898919, 37.48445594 ] } },
{ "type": "Feature", "properties": { "lat": 37.49111596, "lon": 126.9875729, "name": "해돋이어린이집", "uuid": 40 }, "geometry": { "type": "Point", "coordinates": [ 126.9875729, 37.49111596 ] } },
{ "type": "Feature", "properties": { "lat": 37.47701446, "lon": 126.9886757, "name": "도레미어린이집", "uuid": 41 }, "geometry": { "type": "Point", "coordinates": [ 126.9886757, 37.47701446 ] } },
{ "type": "Feature", "properties": { "lat": 37.48807621, "lon": 126.9870733, "name": "아가야어린이집", "uuid": 42 }, "geometry": { "type": "Point", "coordinates": [ 126.9870733, 37.48807621 ] } },
{ "type": "Feature", "properties": { "lat": 37.4907778, "lon": 126.9865005, "name": "아람마주이야기어린이집", "uuid": 43 }, "geometry": { "type": "Point", "coordinates": [ 126.9865005, 37.4907778 ] } },
{ "type": "Feature", "properties": { "lat": 37.47453445, "lon": 126.9842367, "name": "까리따스어린이집", "uuid": 44 }, "geometry": { "type": "Point", "coordinates": [ 126.9842367, 37.47453445 ] } },
{ "type": "Feature", "properties": { "lat": 37.48061116, "lon": 126.9845908, "name": "한사랑어린이집", "uuid": 45 }, "geometry": { "type": "Point", "coordinates": [ 126.9845908, 37.48061116 ] } },
{ "type": "Feature", "properties": { "lat": 37.47739089, "lon": 126.9840361, "name": "칼비테영재어린이집", "uuid": 46 }, "geometry": { "type": "Point", "coordinates": [ 126.9840361, 37.47739089 ] } }
]
}
