coord,name,lon,geometry,uuid,lat
POINT(126.9937168 37.4836506),강정자피아노,126.9937168,POINT(126.9937168 37.4836506),academy_181,37.4836506
POINT(127.0143407 37.5197943),한국속성한문교습소,127.0143407,POINT(127.0143407 37.5197943),academy_182,37.5197943
POINT(127.0034252 37.506106),아이캔스피치&리더십센터교습소,127.0034252,POINT(127.0034252 37.506106),academy_183,37.506106
POINT(127.0322158 37.4749978),덕암한문교습소,127.0322158,POINT(127.0322158 37.4749978),academy_184,37.4749978
POINT(127.0065231 37.4780193),방배발레아카데미무용교습소,127.0065231,POINT(127.0065231 37.4780193),academy_185,37.4780193
POINT(126.9856989 37.4787254),피아노친구피아노교습소,126.9856989,POINT(126.9856989 37.4787254),academy_186,37.4787254
POINT(126.9861984 37.4869473),두란노서예교습소,126.9861984,POINT(126.9861984 37.4869473),academy_187,37.4869473
POINT(126.9961583 37.4862484),명진피아노,126.9961583,POINT(126.9961583 37.4862484),academy_188,37.4862484
POINT(127.0194018 37.4961119),강남알프레드피아노교습소,127.0194018,POINT(127.0194018 37.4961119),academy_189,37.4961119
POINT(123.7417741 32.5220203),방배피아노,123.7417741,POINT(123.7417741 32.5220203),academy_190,32.5220203
POINT(126.9838009 37.478619),클라비어피아노교습소,126.9838009,POINT(126.9838009 37.478619),academy_191,37.478619
POINT(127.0259319 37.4922553),연세영어교습소,127.0259319,POINT(127.0259319 37.4922553),academy_192,37.4922553
POINT(126.9869203 37.5021451),비하우스바이올린교습,126.9869203,POINT(126.9869203 37.5021451),academy_193,37.5021451
POINT(126.9869203 37.5021451),비하우스첼로교습소,126.9869203,POINT(126.9869203 37.5021451),academy_194,37.5021451
POINT(127.0445078 37.4694662),새세잔미술교습소,127.0445078,POINT(127.0445078 37.4694662),academy_195,37.4694662
POINT(127.0154635 37.5178575),설악피아노교습소,127.0154635,POINT(127.0154635 37.5178575),academy_196,37.5178575
POINT(126.9831773 37.4895974),아마빌레플러스음악교습소,126.9831773,POINT(126.9831773 37.4895974),academy_197,37.4895974
POINT(127.0417021 37.4793641),신나는이화미술교습소,127.0417021,POINT(127.0417021 37.4793641),academy_198,37.4793641
POINT(126.9863721 37.4832905),신영피아노교습소,126.9863721,POINT(126.9863721 37.4832905),academy_199,37.4832905
POINT(127.0227407 37.5019783),피아노쥬이르음악교습소,127.0227407,POINT(127.0227407 37.5019783),academy_200,37.5019783
POINT(127.0440268 37.473499),바로크음악교습소,127.0440268,POINT(127.0440268 37.473499),academy_201,37.473499
POINT(126.9854482 37.492248),하이러브음악교습소,126.9854482,POINT(126.9854482 37.492248),academy_202,37.492248
POINT(127.0100772 37.5162716),피아노스토리음악교습소,127.0100772,POINT(127.0100772 37.5162716),academy_203,37.5162716
POINT(127.0091328 37.4807444),우수피아노교습소,127.0091328,POINT(127.0091328 37.4807444),academy_204,37.4807444
POINT(127.0247163 37.4709444),우암바이올린교습소,127.0247163,POINT(127.0247163 37.4709444),academy_205,37.4709444
POINT(126.9851723 37.4792074),조이풀음악교습소,126.9851723,POINT(126.9851723 37.4792074),academy_206,37.4792074
POINT(127.0174633 37.4999252),이화음악교습소,127.0174633,POINT(127.0174633 37.4999252),academy_208,37.4999252
POINT(127.0007679 37.4992716),비바체피아노교습소,127.0007679,POINT(127.0007679 37.4992716),academy_209,37.4992716
POINT(127.0000133 37.5049688),전민숙피아노,127.0000133,POINT(127.0000133 37.5049688),academy_210,37.5049688
POINT(127.0250988 37.4710827),창봉서예교습소,127.0250988,POINT(127.0250988 37.4710827),academy_211,37.4710827
POINT(127.0090872 37.483339),글고운서예교습소,127.0090872,POINT(127.0090872 37.483339),academy_212,37.483339
POINT(127.0143407 37.5197943),파가니니바이올린교습소,127.0143407,POINT(127.0143407 37.5197943),academy_213,37.5197943
POINT(127.0249371 37.4904901),푸른미술과외교습소,127.0249371,POINT(127.0249371 37.4904901),academy_214,37.4904901
POINT(127.0263178 37.4869243),하늘피아노교습소,127.0263178,POINT(127.0263178 37.4869243),academy_215,37.4869243
POINT(127.0175436 37.5162349),한겨례서예,127.0175436,POINT(127.0175436 37.5162349),academy_216,37.5162349
POINT(127.012073 37.5021689),국악누리교습소,127.012073,POINT(127.012073 37.5021689),academy_217,37.5021689
POINT(126.9880473 37.4957393),향촌서예교습소,126.9880473,POINT(126.9880473 37.4957393),academy_218,37.4957393
POINT(126.992457 37.4823244),뮤직앤스토리음악교습소,126.992457,POINT(126.992457 37.4823244),academy_219,37.4823244
POINT(126.9915887 37.4930845),반디과학전문학원,126.9915887,POINT(126.9915887 37.4930845),academy_220,37.4930845
POINT(127.0277116 37.4910536),도레미아카데미음악교습소,127.0277116,POINT(127.0277116 37.4910536),academy_221,37.4910536
POINT(127.0277116 37.4910536),도레미음악교습소,127.0277116,POINT(127.0277116 37.4910536),academy_222,37.4910536
POINT(126.9871492 37.5011109),멘토2관학원,126.9871492,POINT(126.9871492 37.5011109),academy_223,37.5011109
POINT(127.024742 37.4985349),해커스어학원강남제1별관학원,127.024742,POINT(127.024742 37.4985349),academy_224,37.4985349
POINT(126.987608 37.4780119),방배지앤비영어전문학원,126.987608,POINT(126.987608 37.4780119),academy_225,37.4780119
POINT(127.0102102 37.5002071),엘리트서초어학원,127.0102102,POINT(127.0102102 37.5002071),academy_226,37.5002071
POINT(126.9869203 37.5021451),세명학원,126.9869203,POINT(126.9869203 37.5021451),academy_227,37.5021451
POINT(127.0137011 37.5004886),그림마을미술교습소,127.0137011,POINT(127.0137011 37.5004886),academy_228,37.5004886
POINT(126.9948913 37.4913556),방배에이프릴어학원,126.9948913,POINT(126.9948913 37.4913556),academy_229,37.4913556
POINT(126.9948913 37.4913556),(주)방배청담어학원,126.9948913,POINT(126.9948913 37.4913556),academy_230,37.4913556
POINT(126.9877635 37.496656),서래나무스즈키음악교습소,126.9877635,POINT(126.9877635 37.496656),academy_231,37.496656
POINT(126.9995807 37.4780508),웰라잉글리쉬영어교습소,126.9995807,POINT(126.9995807 37.4780508),academy_232,37.4780508
POINT(127.0139482 37.5066358),반포친우음악교습소,127.0139482,POINT(127.0139482 37.5066358),academy_233,37.5066358
POINT(127.0307723 37.4869699),근육학아카데미학원,127.0307723,POINT(127.0307723 37.4869699),academy_234,37.4869699
POINT(126.9982734 37.4811214),이지스아카데미학원,126.9982734,POINT(126.9982734 37.4811214),academy_235,37.4811214
POINT(127.0000133 37.5049688),한자365한문교습소,127.0000133,POINT(127.0000133 37.5049688),academy_236,37.5049688
POINT(127.0034252 37.506106),양재우사회교습소,127.0034252,POINT(127.0034252 37.506106),academy_237,37.506106
POINT(127.0116421 37.4876674),호스코아카데미학원,127.0116421,POINT(127.0116421 37.4876674),academy_238,37.4876674
POINT(127.0265924 37.4718519),신애음악학원,127.0265924,POINT(127.0265924 37.4718519),academy_239,37.4718519
POINT(126.9870974 37.4865225),예음피아노교습소,126.9870974,POINT(126.9870974 37.4865225),academy_240,37.4865225
POINT(127.0055318 37.5067454),와룡국어교습소,127.0055318,POINT(127.0055318 37.5067454),academy_241,37.5067454
POINT(127.0171001 37.5155464),본스타트레이닝센터학원,127.0171001,POINT(127.0171001 37.5155464),academy_242,37.5155464
POINT(126.991494 37.4917141),하이츠방배캠퍼스학원,126.991494,POINT(126.991494 37.4917141),academy_243,37.4917141
POINT(127.0243361 37.5010544),해커스어학원강남제6별관학원,127.0243361,POINT(127.0243361 37.5010544),academy_244,37.5010544
POINT(126.9972242 37.4826442),심앤김국수시대학원,126.9972242,POINT(126.9972242 37.4826442),academy_245,37.4826442
POINT(127.0259319 37.4922553),청어람국어교습소,127.0259319,POINT(127.0259319 37.4922553),academy_246,37.4922553
POINT(126.9828163 37.4870263),베블렌수학학원,126.9828163,POINT(126.9828163 37.4870263),academy_247,37.4870263
POINT(127.0126509 37.4840446),한국공급관리교육학원,127.0126509,POINT(127.0126509 37.4840446),academy_248,37.4840446
POINT(127.0259319 37.4922553),동암한문교습소,127.0259319,POINT(127.0259319 37.4922553),academy_249,37.4922553
POINT(126.9928708 37.4877162),시그마2수학학원,126.9928708,POINT(126.9928708 37.4877162),academy_250,37.4877162
POINT(127.0248042 37.4911468),지니클리닉영어교습소,127.0248042,POINT(127.0248042 37.4911468),academy_252,37.4911468
POINT(127.0113091 37.5000631),비아이에스어학원,127.0113091,POINT(127.0113091 37.5000631),academy_253,37.5000631
POINT(127.0035592 37.5087922),잠원예랑미술학원,127.0035592,POINT(127.0035592 37.5087922),academy_254,37.5087922
POINT(127.0075413 37.4831008),시매쓰학원,127.0075413,POINT(127.0075413 37.4831008),academy_255,37.4831008
POINT(126.9901309 37.5039297),반포연세피아노교습소,126.9901309,POINT(126.9901309 37.5039297),academy_256,37.5039297
POINT(126.9888745 37.4947733),역사사고력논술교습소,126.9888745,POINT(126.9888745 37.4947733),academy_257,37.4947733
POINT(127.0101914 37.5033426),서초소마학원,127.0101914,POINT(127.0101914 37.5033426),academy_258,37.5033426
POINT(127.0072892 37.5072738),이룸수학교습소,127.0072892,POINT(127.0072892 37.5072738),academy_259,37.5072738
POINT(127.044458 37.4733764),클라라슈만음악학원,127.044458,POINT(127.044458 37.4733764),academy_260,37.4733764
POINT(127.0109178 37.4997174),가인학원,127.0109178,POINT(127.0109178 37.4997174),academy_261,37.4997174
POINT(127.0186909 37.4942678),씨지앤아이(CGNI)게임그래픽학원,127.0186909,POINT(127.0186909 37.4942678),academy_263,37.4942678
POINT(126.9835007 37.4907625),비와이피(BYP)보습학원,126.9835007,POINT(126.9835007 37.4907625),academy_264,37.4907625
POINT(127.0121453 37.4898162),아름재즈피아노교습소,127.0121453,POINT(127.0121453 37.4898162),academy_265,37.4898162
POINT(127.0100401 37.5036657),플래뮤서초미술학원,127.0100401,POINT(127.0100401 37.5036657),academy_266,37.5036657
POINT(126.9911218 37.4975317),지브이씨에스랭귀지프렙어학원,126.9911218,POINT(126.9911218 37.4975317),academy_267,37.4975317
POINT(127.0253957 37.4708599),엠케이영어교습소,127.0253957,POINT(127.0253957 37.4708599),academy_268,37.4708599
POINT(127.0212667 37.4901263),게이트서초어학학원,127.0212667,POINT(127.0212667 37.4901263),academy_269,37.4901263
POINT(127.0285717 37.4866365),토브국어교습소,127.0285717,POINT(127.0285717 37.4866365),academy_270,37.4866365
POINT(126.9983523 37.4997737),김수희과학보습학원,126.9983523,POINT(126.9983523 37.4997737),academy_271,37.4997737
POINT(126.9832776 37.4963742),강신백국어보습학원,126.9832776,POINT(126.9832776 37.4963742),academy_272,37.4963742
POINT(127.0104441 37.5004794),프리셀영어학원,127.0104441,POINT(127.0104441 37.5004794),academy_273,37.5004794
POINT(127.0198315 37.4943854),아이파재경교육학원,127.0198315,POINT(127.0198315 37.4943854),academy_274,37.4943854
POINT(127.0097136 37.5035548),메이저수학학원,127.0097136,POINT(127.0097136 37.5035548),academy_275,37.5035548
POINT(127.0113091 37.5000631),피아이서초어학원,127.0113091,POINT(127.0113091 37.5000631),academy_276,37.5000631
POINT(127.0103877 37.5021819),탐구와은유학원,127.0103877,POINT(127.0103877 37.5021819),academy_278,37.5021819
POINT(127.024887 37.4917331),뜰아트미술교습소,127.024887,POINT(127.024887 37.4917331),academy_279,37.4917331
POINT(127.028693 37.4929899),이튼교육강남독학재수학원,127.028693,POINT(127.028693 37.4929899),academy_280,37.4929899
POINT(127.0021861 37.5057261),반포해냄학원,127.0021861,POINT(127.0021861 37.5057261),academy_281,37.5057261
POINT(126.9871929 37.4769361),앙상블음악교습소,126.9871929,POINT(126.9871929 37.4769361),academy_282,37.4769361
POINT(127.0448006 37.4695497),이루트학원,127.0448006,POINT(127.0448006 37.4695497),academy_283,37.4695497
POINT(127.0014445 37.5096033),클라라피아노스튜디오교습소,127.0014445,POINT(127.0014445 37.5096033),academy_284,37.5096033
POINT(127.012073 37.5021689),고트수학교습소,127.012073,POINT(127.012073 37.5021689),academy_285,37.5021689
POINT(126.9921857 37.4932608),킹스타운서초어학원,126.9921857,POINT(126.9921857 37.4932608),academy_286,37.4932608
POINT(127.0087853 37.5010511),사비나아트미술교습소,127.0087853,POINT(127.0087853 37.5010511),academy_287,37.5010511
POINT(127.0257595 37.4985613),해커스어학원강남제3별관학원,127.0257595,POINT(127.0257595 37.4985613),academy_288,37.4985613
POINT(127.0174633 37.4999252),아트피디어미술교습소,127.0174633,POINT(127.0174633 37.4999252),academy_289,37.4999252
POINT(126.9870974 37.4865225),방배해법영어교습소,126.9870974,POINT(126.9870974 37.4865225),academy_290,37.4865225
POINT(127.0102248 37.5008109),알앤디잉글리쉬(R&D English)학원,127.0102248,POINT(127.0102248 37.5008109),academy_291,37.5008109
POINT(126.997063 37.4828591),아세아실용음악학원,126.997063,POINT(126.997063 37.4828591),academy_292,37.4828591
POINT(127.0105381 37.5027778),노정현수학반포본원학원,127.0105381,POINT(127.0105381 37.5027778),academy_293,37.5027778
POINT(126.9963681 37.4840877),제이플로리스트학원,126.9963681,POINT(126.9963681 37.4840877),academy_294,37.4840877
POINT(127.0130338 37.518531),튜티음악교습소,127.0130338,POINT(127.0130338 37.518531),academy_295,37.518531
POINT(127.0034252 37.506106),와일본어교육원일본어교습소,127.0034252,POINT(127.0034252 37.506106),academy_296,37.506106
POINT(127.0035592 37.5087922),리드101잠원반원학원,127.0035592,POINT(127.0035592 37.5087922),academy_297,37.5087922
POINT(127.0190881 37.498479),허은주국어교습소,127.0190881,POINT(127.0190881 37.498479),academy_298,37.498479
POINT(126.9858162 37.4876108),엠플러스수학학원,126.9858162,POINT(126.9858162 37.4876108),academy_299,37.4876108
POINT(127.0116466 37.5010571),서초1관정상어학원,127.0116466,POINT(127.0116466 37.5010571),academy_300,37.5010571
POINT(127.0174633 37.4999252),서초심슨학원,127.0174633,POINT(127.0174633 37.4999252),academy_301,37.4999252
POINT(126.9823825 37.4831661),서순영국어논술학원,126.9823825,POINT(126.9823825 37.4831661),academy_302,37.4831661
POINT(127.0098927 37.5071155),블루북스리딩학원,127.0098927,POINT(127.0098927 37.5071155),academy_303,37.5071155
POINT(126.9882964 37.4932005),노리터(Noriter)잉글리시영어교습소,126.9882964,POINT(126.9882964 37.4932005),academy_304,37.4932005
POINT(126.996184 37.4851764),성음피아노교습소,126.996184,POINT(126.996184 37.4851764),academy_306,37.4851764
POINT(127.0098364 37.48312),열린생각서초수학교습소,127.0098364,POINT(127.0098364 37.48312),academy_307,37.48312
POINT(126.99166 37.4903009),세린(S.E.C)어학원,126.99166,POINT(126.99166 37.4903009),academy_308,37.4903009
POINT(126.9854783 37.479156),에이치씨엠에스학원,126.9854783,POINT(126.9854783 37.479156),academy_309,37.479156
POINT(126.9940788 37.4886996),아레네스(R&S)수학전문학원,126.9940788,POINT(126.9940788 37.4886996),academy_310,37.4886996
POINT(127.0072892 37.5072738),에프엑스(f(x))수학학원,127.0072892,POINT(127.0072892 37.5072738),academy_311,37.5072738
POINT(127.0259319 37.4922553),선바이올린교습소,127.0259319,POINT(127.0259319 37.4922553),academy_312,37.4922553
POINT(127.0235582 37.4713223),예랑미술학원,127.0235582,POINT(127.0235582 37.4713223),academy_313,37.4713223
POINT(126.9956206 37.4841804),대한논리방배학원,126.9956206,POINT(126.9956206 37.4841804),academy_314,37.4841804
POINT(126.9894806 37.4925979),멘토수학전문교습소,126.9894806,POINT(126.9894806 37.4925979),academy_315,37.4925979
POINT(126.9830606 37.4906957),지승학원,126.9830606,POINT(126.9830606 37.4906957),academy_316,37.4906957
POINT(127.0454002 37.4721856),에이플영어학원,127.0454002,POINT(127.0454002 37.4721856),academy_317,37.4721856
POINT(127.0087712 37.4875713),튼튼영어서초3동마스터클럽영어교습소,127.0087712,POINT(127.0087712 37.4875713),academy_318,37.4875713
POINT(126.9954312 37.4831246),솔기타교습소,126.9954312,POINT(126.9954312 37.4831246),academy_319,37.4831246
POINT(127.0102675 37.5010005),잉글리쉬부띠끄어학원,127.0102675,POINT(127.0102675 37.5010005),academy_320,37.5010005
POINT(127.0150671 37.4963732),문사탐학원,127.0150671,POINT(127.0150671 37.4963732),academy_321,37.4963732
POINT(127.0052559 37.4823517),이지솔루션학원,127.0052559,POINT(127.0052559 37.4823517),academy_322,37.4823517
POINT(127.0000656 37.4772981),선과색미술교습소,127.0000656,POINT(127.0000656 37.4772981),academy_323,37.4772981
POINT(126.9894204 37.4953816),아이엘음악학원,126.9894204,POINT(126.9894204 37.4953816),academy_324,37.4953816
POINT(127.0393573 37.4823546),예향피아노교습소,127.0393573,POINT(127.0393573 37.4823546),academy_325,37.4823546
POINT(126.9965901 37.4835579),수아체학원,126.9965901,POINT(126.9965901 37.4835579),academy_326,37.4835579
POINT(127.0083647 37.4832519),케이디(KD)영어전문학원,127.0083647,POINT(127.0083647 37.4832519),academy_327,37.4832519
POINT(127.0021861 37.5057261),펜타스과학전문학원,127.0021861,POINT(127.0021861 37.5057261),academy_328,37.5057261
POINT(126.9851703 37.4801896),뮤직스트리트음악교습소,126.9851703,POINT(126.9851703 37.4801896),academy_329,37.4801896
POINT(127.0104456 37.5003622),뮤니크피아노교습소,127.0104456,POINT(127.0104456 37.5003622),academy_330,37.5003622
POINT(127.009672 37.5032751),이이엘씨(eelc)킨더어학원,127.009672,POINT(127.009672 37.5032751),academy_331,37.5032751
POINT(127.0174633 37.4999252),피아노사랑음악교습소,127.0174633,POINT(127.0174633 37.4999252),academy_332,37.4999252
POINT(127.0174633 37.4999252),선생님따라잡기학원,127.0174633,POINT(127.0174633 37.4999252),academy_333,37.4999252
POINT(126.9869203 37.5021451),훈수학교습소,126.9869203,POINT(126.9869203 37.5021451),academy_334,37.5021451
POINT(126.9921868 37.5041184),제네시스수학학원,126.9921868,POINT(126.9921868 37.5041184),academy_335,37.5041184
POINT(127.0174633 37.4999252),서초연세피아노교습소,127.0174633,POINT(127.0174633 37.4999252),academy_336,37.4999252
POINT(127.020749 37.501196),서초삼호해법수학교습소,127.020749,POINT(127.020749 37.501196),academy_337,37.501196
POINT(127.0186302 37.5161808),티아이연기학원,127.0186302,POINT(127.0186302 37.5161808),academy_338,37.5161808
POINT(126.9978229 37.4818384),천년의미소미술학원,126.9978229,POINT(126.9978229 37.4818384),academy_339,37.4818384
POINT(127.0217403 37.5015015),튼튼영어마스터클럽이상수학학원,127.0217403,POINT(127.0217403 37.5015015),academy_340,37.5015015
POINT(127.0333061 37.4851435),비너세움아카데미학원,127.0333061,POINT(127.0333061 37.4851435),academy_341,37.4851435
POINT(127.0167676 37.51503),존앤섹션아카데미코리아학원,127.0167676,POINT(127.0167676 37.51503),academy_342,37.51503
POINT(127.0072892 37.5072738),반포비전매쓰학원,127.0072892,POINT(127.0072892 37.5072738),academy_343,37.5072738
POINT(127.0115158 37.5144095),이탑수학교습소,127.0115158,POINT(127.0115158 37.5144095),academy_344,37.5144095
POINT(126.999775 37.4795933),빅토리아잉글리쉬영어교습소,126.999775,POINT(126.999775 37.4795933),academy_345,37.4795933
POINT(127.026533 37.4877641),이에스엘(E.S.L)영어학원,127.026533,POINT(127.026533 37.4877641),academy_346,37.4877641
POINT(127.0011202 37.5059333),권박사학원,127.0011202,POINT(127.0011202 37.5059333),academy_347,37.5059333
POINT(126.9834198 37.491726),김쌤최강영어교습소,126.9834198,POINT(126.9834198 37.491726),academy_348,37.491726
POINT(127.0259319 37.4922553),아렌디독서논술교습소,127.0259319,POINT(127.0259319 37.4922553),academy_349,37.4922553
POINT(127.0008014 37.5043898),전원주니어미술학원,127.0008014,POINT(127.0008014 37.5043898),academy_350,37.5043898
POINT(127.0172563 37.4932828),알타이탈리아어학원,127.0172563,POINT(127.0172563 37.4932828),academy_351,37.4932828
POINT(127.0440268 37.473499),스카이엠(SKYM)수학학원,127.0440268,POINT(127.0440268 37.473499),academy_352,37.473499
POINT(127.0041177 37.4829188),서연고학원,127.0041177,POINT(127.0041177 37.4829188),academy_353,37.4829188
POINT(126.9949492 37.4861931),가람하지혜언어전문학원,126.9949492,POINT(126.9949492 37.4861931),academy_354,37.4861931
POINT(127.0149656 37.4920473),사파사진학원,127.0149656,POINT(127.0149656 37.4920473),academy_355,37.4920473
POINT(127.0115158 37.5144095),엘림영어교습소,127.0115158,POINT(127.0115158 37.5144095),academy_356,37.5144095
POINT(126.9821765 37.4750098),잼실용음악학원,126.9821765,POINT(126.9821765 37.4750098),academy_357,37.4750098
POINT(127.0174633 37.4999252),맨투스명성학원,127.0174633,POINT(127.0174633 37.4999252),academy_358,37.4999252
POINT(126.993106 37.4803025),한국발레하우스무용학원,126.993106,POINT(126.993106 37.4803025),academy_359,37.4803025
POINT(127.0276521 37.4886653),놀이공작실미술교습소,127.0276521,POINT(127.0276521 37.4886653),academy_360,37.4886653
POINT(127.0252999 37.49216),미술로생각하기학원,127.0252999,POINT(127.0252999 37.49216),academy_361,37.49216
POINT(126.9949526 37.4850938),눈높이러닝센터방배제1보습학원,126.9949526,POINT(126.9949526 37.4850938),academy_362,37.4850938
POINT(127.0474431 37.4724454),이지엠학원,127.0474431,POINT(127.0474431 37.4724454),academy_363,37.4724454
POINT(127.0139417 37.4890743),엔조이씨지(Enjoy CG)학원,127.0139417,POINT(127.0139417 37.4890743),academy_364,37.4890743
POINT(127.0174633 37.4999252),생각하는힘수학교습소,127.0174633,POINT(127.0174633 37.4999252),academy_365,37.4999252
POINT(127.0464189 37.4720857),루이독서논술교습소,127.0464189,POINT(127.0464189 37.4720857),academy_366,37.4720857
POINT(127.0441187 37.4698325),능률주니어랩학원,127.0441187,POINT(127.0441187 37.4698325),academy_367,37.4698325
POINT(127.0000656 37.4772981),이강토혁신수학교습소,127.0000656,POINT(127.0000656 37.4772981),academy_368,37.4772981
POINT(126.9831702 37.4942918),한올국어논술학원,126.9831702,POINT(126.9831702 37.4942918),academy_369,37.4942918
POINT(127.0562945 37.4473228),미소꽃예술학원,127.0562945,POINT(127.0562945 37.4473228),academy_370,37.4473228
POINT(127.0102102 37.5002071),토토빌놀이학원,127.0102102,POINT(127.0102102 37.5002071),academy_371,37.5002071
POINT(126.9943195 37.4850884),뮤직필리아음악학원,126.9943195,POINT(126.9943195 37.4850884),academy_372,37.4850884
POINT(127.0141834 37.5154139),수해법수학교습소,127.0141834,POINT(127.0141834 37.5154139),academy_373,37.5154139
POINT(126.9906421 37.4919951),중앙보습학원,126.9906421,POINT(126.9906421 37.4919951),academy_0,37.4919951
POINT(127.0087483 37.4884541),동신보습학원,127.0087483,POINT(127.0087483 37.4884541),academy_1,37.4884541
POINT(127.0021861 37.5057261),엘브라운의대관학원,127.0021861,POINT(127.0021861 37.5057261),academy_2,37.5057261
POINT(126.9874334 37.5026721),광지독서실,126.9874334,POINT(126.9874334 37.5026721),academy_3,37.5026721
POINT(127.0009618 37.4770714),예신음악학원,127.0009618,POINT(127.0009618 37.4770714),academy_4,37.4770714
POINT(126.9962507 37.486105),잔디음악학원,126.9962507,POINT(126.9962507 37.486105),academy_5,37.486105
POINT(127.0115158 37.5144095),스터디하우스잠원독서실,127.0115158,POINT(127.0115158 37.5144095),academy_6,37.5144095
POINT(126.9845826 37.4910332),피앤피아카데미(P&P Academy)학원,126.9845826,POINT(126.9845826 37.4910332),academy_7,37.4910332
POINT(127.0478397 37.4741606),하수꽃꽂이학원,127.0478397,POINT(127.0478397 37.4741606),academy_8,37.4741606
POINT(127.0241085 37.5020257),국제컴퓨터학원,127.0241085,POINT(127.0241085 37.5020257),academy_9,37.5020257
POINT(127.0115158 37.5144095),잠원수도컴퓨터학원,127.0115158,POINT(127.0115158 37.5144095),academy_10,37.5144095
POINT(127.0055318 37.5067454),가나어학학원,127.0055318,POINT(127.0055318 37.5067454),academy_11,37.5067454
POINT(126.9972242 37.4826442),서초그린섬미술학원,126.9972242,POINT(126.9972242 37.4826442),academy_12,37.4826442
POINT(127.0174633 37.4999252),리즈음악학원,127.0174633,POINT(127.0174633 37.4999252),academy_13,37.4999252
POINT(127.0087853 37.5010511),서원음악학원,127.0087853,POINT(127.0087853 37.5010511),academy_14,37.5010511
POINT(126.9874554 37.4951846),아이캔보습학원,126.9874554,POINT(126.9874554 37.4951846),academy_15,37.4951846
POINT(127.0154635 37.5178575),수이지수학전문학원,127.0154635,POINT(127.0154635 37.5178575),academy_16,37.5178575
POINT(127.0014497 37.4811843),신동아학원,127.0014497,POINT(127.0014497 37.4811843),academy_17,37.4811843
POINT(127.0198985 37.490124),예일보습학원,127.0198985,POINT(127.0198985 37.490124),academy_18,37.490124
POINT(127.009821 37.4894273),박컴학원,127.009821,POINT(127.009821 37.4894273),academy_19,37.4894273
POINT(126.993386 37.488928),준암보습학원,126.993386,POINT(126.993386 37.488928),academy_20,37.488928
POINT(127.0447812 37.4728564),제일진성보습학원,127.0447812,POINT(127.0447812 37.4728564),academy_21,37.4728564
POINT(126.9975306 37.4977845),란음악학원,126.9975306,POINT(126.9975306 37.4977845),academy_22,37.4977845
POINT(127.0154692 37.4924479),박정어학원,127.0154692,POINT(127.0154692 37.4924479),academy_23,37.4924479
POINT(127.0322158 37.4749978),이든음악학원,127.0322158,POINT(127.0322158 37.4749978),academy_24,37.4749978
POINT(127.0071774 37.4824039),시온음악학원,127.0071774,POINT(127.0071774 37.4824039),academy_25,37.4824039
POINT(126.9989078 37.4801806),녹지미술학원,126.9989078,POINT(126.9989078 37.4801806),academy_26,37.4801806
POINT(127.0143407 37.5197943),탑클래스독서실,127.0143407,POINT(127.0143407 37.5197943),academy_27,37.5197943
POINT(127.0142486 37.4923927),한국회계학원,127.0142486,POINT(127.0142486 37.4923927),academy_28,37.4923927
POINT(127.0381159 37.4848224),서울애완동물관리학원,127.0381159,POINT(127.0381159 37.4848224),academy_29,37.4848224
POINT(126.9897876 37.4756788),행원독서실,126.9897876,POINT(126.9897876 37.4756788),academy_30,37.4756788
POINT(127.0253957 37.4708599),양재왕수학보습학원,127.0253957,POINT(127.0253957 37.4708599),academy_31,37.4708599
POINT(127.0250988 37.4710827),연세아카데미학원,127.0250988,POINT(127.0250988 37.4710827),academy_32,37.4710827
POINT(126.9996005 37.4799612),방배학원,126.9996005,POINT(126.9996005 37.4799612),academy_33,37.4799612
POINT(127.0112172 37.5010265),리드유(Leadu)영어학원,127.0112172,POINT(127.0112172 37.5010265),academy_34,37.5010265
POINT(127.0263437 37.4875372),피에스에이서초어학학원,127.0263437,POINT(127.0263437 37.4875372),academy_35,37.4875372
POINT(127.0218698 37.4846349),서초제일보습학원,127.0218698,POINT(127.0218698 37.4846349),academy_36,37.4846349
POINT(127.0048897 37.5065508),헨리영어아이(i)학원,127.0048897,POINT(127.0048897 37.5065508),academy_37,37.5065508
POINT(126.9866613 37.4861583),개념폴리아방배관학원,126.9866613,POINT(126.9866613 37.4861583),academy_38,37.4861583
POINT(126.9929699 37.4938081),이소키즈클럽어학원,126.9929699,POINT(126.9929699 37.4938081),academy_39,37.4938081
POINT(127.0306961 37.4753638),경인학원,127.0306961,POINT(127.0306961 37.4753638),academy_40,37.4753638
POINT(127.0253957 37.4708599),서초뉴이화음악학원,127.0253957,POINT(127.0253957 37.4708599),academy_41,37.4708599
POINT(127.0130338 37.518531),경희무용학원,127.0130338,POINT(127.0130338 37.518531),academy_43,37.518531
POINT(127.012073 37.5021689),103미술학원,127.012073,POINT(127.012073 37.5021689),academy_44,37.5021689
POINT(127.0219742 37.4844376),셈프레뮤직아트센터서초학원,127.0219742,POINT(127.0219742 37.4844376),academy_45,37.4844376
POINT(127.023732 37.4866417),강남용문보습학원,127.023732,POINT(127.023732 37.4866417),academy_46,37.4866417
POINT(127.012073 37.5021689),피엠지보습학원,127.012073,POINT(127.012073 37.5021689),academy_47,37.5021689
POINT(126.9947134 37.5054735),반포한신보습학원,126.9947134,POINT(126.9947134 37.5054735),academy_48,37.5054735
POINT(127.0109714 37.4999431),에스오티어학원,127.0109714,POINT(127.0109714 37.4999431),academy_49,37.4999431
POINT(127.0229255 37.5042866),에스엠에스(SMS)서울실용음악학원,127.0229255,POINT(127.0229255 37.5042866),academy_50,37.5042866
POINT(127.020806 37.5037644),영재과학보습학원,127.020806,POINT(127.020806 37.5037644),academy_51,37.5037644
POINT(127.0262296 37.4998086),파고다원강남학원,127.0262296,POINT(127.0262296 37.4998086),academy_52,37.4998086
POINT(126.9889501 37.4933593),멘토(Mentor)독서실,126.9889501,POINT(126.9889501 37.4933593),academy_53,37.4933593
POINT(126.9831156 37.4933092),윤영숙수학전문학원,126.9831156,POINT(126.9831156 37.4933092),academy_54,37.4933092
POINT(127.010651 37.5010848),현재어학원,127.010651,POINT(127.010651 37.5010848),academy_55,37.5010848
POINT(127.0100772 37.5162716),메디치보습학원,127.0100772,POINT(127.0100772 37.5162716),academy_56,37.5162716
POINT(127.012073 37.5021689),퍼스널학원,127.012073,POINT(127.012073 37.5021689),academy_57,37.5021689
POINT(126.9889501 37.4933593),폴리아수학학원,126.9889501,POINT(126.9889501 37.4933593),academy_59,37.4933593
POINT(127.0007575 37.4788267),오예스영어학원,127.0007575,POINT(127.0007575 37.4788267),academy_60,37.4788267
POINT(127.0282432 37.494536),새롬공인중개사학원,127.0282432,POINT(127.0282432 37.494536),academy_61,37.494536
POINT(127.0104593 37.5018941),진선생어학원,127.0104593,POINT(127.0104593 37.5018941),academy_62,37.5018941
POINT(127.0259319 37.4922553),서초무용학원,127.0259319,POINT(127.0259319 37.4922553),academy_63,37.4922553
POINT(126.996292 37.4847087),샘밭미술학원,126.996292,POINT(126.996292 37.4847087),academy_64,37.4847087
POINT(127.0217403 37.5015015),참좋은음악학원,127.0217403,POINT(127.0217403 37.5015015),academy_65,37.5015015
POINT(127.0021861 37.5057261),으뜸창조미술학원,127.0021861,POINT(127.0021861 37.5057261),academy_66,37.5057261
POINT(127.0021176 37.5049236),하선정요리학원,127.0021176,POINT(127.0021176 37.5049236),academy_67,37.5049236
POINT(127.008056 37.5074515),잠원씨앤에이논술보습학원,127.008056,POINT(127.008056 37.5074515),academy_68,37.5074515
POINT(127.0447446 37.465071),코트라아카데미경영학원,127.0447446,POINT(127.0447446 37.465071),academy_69,37.465071
POINT(127.0285595 37.4928176),장수경어학원,127.0285595,POINT(127.0285595 37.4928176),academy_70,37.4928176
POINT(127.0048897 37.5065508),선재보습학원,127.0048897,POINT(127.0048897 37.5065508),academy_71,37.5065508
POINT(126.9864195 37.4981942),브릭앤멘사영재학원,126.9864195,POINT(126.9864195 37.4981942),academy_72,37.4981942
POINT(127.0072402 37.4870539),모든이피아노교습소,127.0072402,POINT(127.0072402 37.4870539),academy_73,37.4870539
POINT(127.0091504 37.487971),중앙법률사무교육학원,127.0091504,POINT(127.0091504 37.487971),academy_74,37.487971
POINT(127.0178219 37.5157146),코몽드피부미용학원,127.0178219,POINT(127.0178219 37.5157146),academy_75,37.5157146
POINT(127.0185822 37.4939335),유진벨어학학원,127.0185822,POINT(127.0185822 37.4939335),academy_76,37.4939335
POINT(127.0111962 37.5017651),파워플러스영어학원,127.0111962,POINT(127.0111962 37.5017651),academy_77,37.5017651
POINT(127.0102777 37.5019467),반포탐구와은유학원,127.0102777,POINT(127.0102777 37.5019467),academy_78,37.5019467
POINT(127.0396562 37.4846187),포스트공연영상학원,127.0396562,POINT(127.0396562 37.4846187),academy_79,37.4846187
POINT(126.9910431 37.4747975),하윤미술교습소,126.9910431,POINT(126.9910431 37.4747975),academy_80,37.4747975
POINT(127.0190938 37.4945865),아이파경영학원,127.0190938,POINT(127.0190938 37.4945865),academy_81,37.4945865
POINT(127.0189044 37.5168409),유로센터독어교습소,127.0189044,POINT(127.0189044 37.5168409),academy_82,37.5168409
POINT(127.0036799 37.5082166),어셔어학원,127.0036799,POINT(127.0036799 37.5082166),academy_83,37.5082166
POINT(127.0177225 37.5103525),더블유에스에이피디피와인아카데미학원,127.0177225,POINT(127.0177225 37.5103525),academy_84,37.5103525
POINT(127.0048897 37.5065508),문클라리넷교습소,127.0048897,POINT(127.0048897 37.5065508),academy_85,37.5065508
POINT(127.0104685 37.5012004),더오름수학학원,127.0104685,POINT(127.0104685 37.5012004),academy_86,37.5012004
POINT(127.0190881 37.498479),그림재미미술교습소,127.0190881,POINT(127.0190881 37.498479),academy_87,37.498479
POINT(127.0168439 37.4936848),이찬이대학편입학원,127.0168439,POINT(127.0168439 37.4936848),academy_88,37.4936848
POINT(127.024742 37.4985349),박문각강남고시학원,127.024742,POINT(127.024742 37.4985349),academy_89,37.4985349
POINT(127.0092948 37.5035783),한우리서초독서논술학원,127.0092948,POINT(127.0092948 37.5035783),academy_90,37.5035783
POINT(126.9845826 37.4910332),오승은과학전문과학교습소,126.9845826,POINT(126.9845826 37.4910332),academy_91,37.4910332
POINT(126.9915887 37.4930845),시그마수학학원,126.9915887,POINT(126.9915887 37.4930845),academy_92,37.4930845
POINT(126.9871492 37.5011109),최고수학학원,126.9871492,POINT(126.9871492 37.5011109),academy_93,37.5011109
POINT(127.0143407 37.5197943),잼앤클래식음악교습소,127.0143407,POINT(127.0143407 37.5197943),academy_94,37.5197943
POINT(127.0000133 37.5049688),피아노포르테피아노교습소,127.0000133,POINT(127.0000133 37.5049688),academy_95,37.5049688
POINT(127.0174633 37.4999252),서초이화바이올린교습소,127.0174633,POINT(127.0174633 37.4999252),academy_96,37.4999252
POINT(127.0174633 37.4999252),아이비수학교습소,127.0174633,POINT(127.0174633 37.4999252),academy_97,37.4999252
POINT(126.9947134 37.5054735),반포향상피아노교습소,126.9947134,POINT(126.9947134 37.5054735),academy_98,37.5054735
POINT(127.0021861 37.5057261),이엔아이피아노교습소,127.0021861,POINT(127.0021861 37.5057261),academy_99,37.5057261
POINT(127.0035592 37.5087922),팝스터디학원,127.0035592,POINT(127.0035592 37.5087922),academy_100,37.5087922
POINT(126.9850255 37.4791972),파머스영어교습소,126.9850255,POINT(126.9850255 37.4791972),academy_101,37.4791972
POINT(127.0217403 37.5015015),클래식피아노교습소,127.0217403,POINT(127.0217403 37.5015015),academy_102,37.5015015
POINT(127.0095874 37.4985529),소르본보습학원,127.0095874,POINT(127.0095874 37.4985529),academy_103,37.4985529
POINT(126.9949443 37.4738937),와이즈만영재교육방배본원학원,126.9949443,POINT(126.9949443 37.4738937),academy_104,37.4738937
POINT(127.0248042 37.4911468),거성영어학원,127.0248042,POINT(127.0248042 37.4911468),academy_105,37.4911468
POINT(127.0277116 37.4910536),째즈탑아카데미실용음악학원,127.0277116,POINT(127.0277116 37.4910536),academy_106,37.4910536
POINT(127.0021861 37.5057261),반포세정3관학원,127.0021861,POINT(127.0021861 37.5057261),academy_107,37.5057261
POINT(126.9887935 37.4781302),아벨수학영어전문학원,126.9887935,POINT(126.9887935 37.4781302),academy_108,37.4781302
POINT(127.006478 37.5070327),잠원바이올린교습소,127.006478,POINT(127.006478 37.5070327),academy_109,37.5070327
POINT(127.0048897 37.5065508),헨리영어전문학원,127.0048897,POINT(127.0048897 37.5065508),academy_110,37.5065508
POINT(127.0046736 37.4819233),네오과학학원,127.0046736,POINT(127.0046736 37.4819233),academy_111,37.4819233
POINT(127.009858 37.5037543),기파랑문해원서초학원,127.009858,POINT(127.009858 37.5037543),academy_112,37.5037543
POINT(127.0127556 37.5130323),해바라기미술교습소,127.0127556,POINT(127.0127556 37.5130323),academy_113,37.5130323
POINT(127.0455977 37.4717637),은빛보습학원,127.0455977,POINT(127.0455977 37.4717637),academy_114,37.4717637
POINT(126.9892846 37.4911996),웅지학당시즌투학원,126.9892846,POINT(126.9892846 37.4911996),academy_115,37.4911996
POINT(127.0210749 37.4840337),지이에스성인고시학원,127.0210749,POINT(127.0210749 37.4840337),academy_116,37.4840337
POINT(127.0259319 37.4922553),채림미술교습소,127.0259319,POINT(127.0259319 37.4922553),academy_117,37.4922553
POINT(127.0160676 37.492516),케이디에스부동산학원,127.0160676,POINT(127.0160676 37.492516),academy_118,37.492516
POINT(127.0103877 37.5021819),이엠피뮤직슐레음악학원,127.0103877,POINT(127.0103877 37.5021819),academy_119,37.5021819
POINT(127.0042978 37.4821274),서초탑클래스학원,127.0042978,POINT(127.0042978 37.4821274),academy_120,37.4821274
POINT(127.0265011 37.4980628),에스비에스(SBS)아카데미컴퓨터아트학원,127.0265011,POINT(127.0265011 37.4980628),academy_121,37.4980628
POINT(127.0306961 37.4753638),석사음악원피아노교습소,127.0306961,POINT(127.0306961 37.4753638),academy_122,37.4753638
POINT(127.0311952 37.4743587),리딩키즈리딩클럽영어전문교습소,127.0311952,POINT(127.0311952 37.4743587),academy_123,37.4743587
POINT(127.0143407 37.5197943),제이앤피영어전문학원,127.0143407,POINT(127.0143407 37.5197943),academy_124,37.5197943
POINT(126.9918986 37.4910598),진체크패스영어보습학원,126.9918986,POINT(126.9918986 37.4910598),academy_125,37.4910598
POINT(127.0132085 37.497529),엘리트리에스비어학원,127.0132085,POINT(127.0132085 37.497529),academy_126,37.497529
POINT(127.0007679 37.4992716),아트앤빛미술교습소,127.0007679,POINT(127.0007679 37.4992716),academy_127,37.4992716
POINT(127.0357793 37.484506),패스트레인정보통신학원,127.0357793,POINT(127.0357793 37.484506),academy_128,37.484506
POINT(127.0104441 37.5004794),요미요미미술학원,127.0104441,POINT(127.0104441 37.5004794),academy_129,37.5004794
POINT(126.9995807 37.4780508),프라임음악교습소,126.9995807,POINT(126.9995807 37.4780508),academy_130,37.4780508
POINT(127.0262233 37.4872299),아카데미라운지서초독서실,127.0262233,POINT(127.0262233 37.4872299),academy_131,37.4872299
POINT(127.0212667 37.4901263),애플트리서초어학학원,127.0212667,POINT(127.0212667 37.4901263),academy_132,37.4901263
POINT(127.0194018 37.4961119),서초한나피아노교습소,127.0194018,POINT(127.0194018 37.4961119),academy_133,37.4961119
POINT(127.0259319 37.4922553),서이플룻교습소,127.0259319,POINT(127.0259319 37.4922553),academy_134,37.4922553
POINT(126.9877635 37.496656),방배삼호해법수학교습소,126.9877635,POINT(126.9877635 37.496656),academy_135,37.496656
POINT(127.0101926 37.5023965),손광균학원,127.0101926,POINT(127.0101926 37.5023965),academy_136,37.5023965
POINT(127.0104411 37.5007046),반포파인만학원,127.0104411,POINT(127.0104411 37.5007046),academy_137,37.5007046
POINT(127.0104765 37.5023088),스파르탄보습학원,127.0104765,POINT(127.0104765 37.5023088),academy_138,37.5023088
POINT(126.993188 37.4893588),EMI영어교습소,126.993188,POINT(126.993188 37.4893588),academy_139,37.4893588
POINT(127.0001532 37.480903),세라아트도예학원,127.0001532,POINT(127.0001532 37.480903),academy_140,37.480903
POINT(126.9861984 37.4869473),사랑이넘치는피아노학원,126.9861984,POINT(126.9861984 37.4869473),academy_141,37.4869473
POINT(126.9841985 37.485164),아름다운음악교습소,126.9841985,POINT(126.9841985 37.485164),academy_142,37.485164
POINT(127.0158903 37.4922442),현재스토리학원,127.0158903,POINT(127.0158903 37.4922442),academy_143,37.4922442
POINT(127.0077216 37.4831474),대치에프엠(FM)수학학원,127.0077216,POINT(127.0077216 37.4831474),academy_144,37.4831474
POINT(127.0465753 37.4731232),황후연국제교육학원,127.0465753,POINT(127.0465753 37.4731232),academy_145,37.4731232
POINT(126.9877635 37.496656),수목미술교습소,126.9877635,POINT(126.9877635 37.496656),academy_146,37.496656
POINT(127.0137474 37.4961099),서초실용음악학원,127.0137474,POINT(127.0137474 37.4961099),academy_147,37.4961099
POINT(126.9889501 37.4933593),생각하는그린나무미술교습소,126.9889501,POINT(126.9889501 37.4933593),academy_148,37.4933593
POINT(127.0100772 37.5162716),대림이엔아이피아노교습소,127.0100772,POINT(127.0100772 37.5162716),academy_149,37.5162716
POINT(127.0075413 37.4831008),비티비(BTB)아카데미학원,127.0075413,POINT(127.0075413 37.4831008),academy_150,37.4831008
POINT(127.0014445 37.5096033),조민정피아노교습소,127.0014445,POINT(127.0014445 37.5096033),academy_151,37.5096033
POINT(126.9832776 37.4963742),반포아너스영어학원,126.9832776,POINT(126.9832776 37.4963742),academy_152,37.4963742
POINT(127.0100655 37.4888887),다플교육센터통역학원,127.0100655,POINT(127.0100655 37.4888887),academy_153,37.4888887
POINT(126.99508 37.4848696),김&김학원,126.99508,POINT(126.99508 37.4848696),academy_154,37.4848696
POINT(127.012073 37.5021689),엠에이에스수학교습소,127.012073,POINT(127.012073 37.5021689),academy_155,37.5021689
POINT(127.0090872 37.483339),이수형수학학원,127.0090872,POINT(127.0090872 37.483339),academy_156,37.483339
POINT(127.0369441 37.4624667),비더블유에스강남와인학원,127.0369441,POINT(127.0369441 37.4624667),academy_157,37.4624667
POINT(127.0321412 37.48517),문현선플로리스트학원,127.0321412,POINT(127.0321412 37.48517),academy_158,37.48517
POINT(127.0425653 37.4684233),멜라뷰티학원,127.0425653,POINT(127.0425653 37.4684233),academy_159,37.4684233
POINT(127.0207994 37.4904108),서초수학교습소,127.0207994,POINT(127.0207994 37.4904108),academy_160,37.4904108
POINT(127.0317788 37.4869602),씨존만화학원,127.0317788,POINT(127.0317788 37.4869602),academy_161,37.4869602
POINT(127.0014445 37.5096033),빛과공간미술교습소,127.0014445,POINT(127.0014445 37.5096033),academy_162,37.5096033
POINT(127.0259319 37.4922553),최상위하다학원,127.0259319,POINT(127.0259319 37.4922553),academy_163,37.4922553
POINT(127.0242235 37.4984044),해커스어학원,127.0242235,POINT(127.0242235 37.4984044),academy_164,37.4984044
POINT(127.02762 37.49463),비트교육센터별관학원,127.02762,POINT(127.02762 37.49463),academy_165,37.49463
POINT(126.9880473 37.4957393),수연미술교습소,126.9880473,POINT(126.9880473 37.4957393),academy_166,37.4957393
POINT(127.0167676 37.51503),이스프릿어학학원,127.0167676,POINT(127.0167676 37.51503),academy_167,37.51503
POINT(126.9981571 37.4991414),프렌즈음악학원,126.9981571,POINT(126.9981571 37.4991414),academy_168,37.4991414
POINT(127.042301 37.4731877),글로벌수학전문학원,127.042301,POINT(127.042301 37.4731877),academy_169,37.4731877
POINT(127.0111962 37.5017651),서초에이프릴어학원,127.0111962,POINT(127.0111962 37.5017651),academy_170,37.5017651
POINT(127.0249371 37.4904901),엘리제음악교습소,127.0249371,POINT(127.0249371 37.4904901),academy_171,37.4904901
POINT(123.7417741 32.5220203),맹자희교습소,123.7417741,POINT(123.7417741 32.5220203),academy_172,32.5220203
POINT(127.0014497 37.4811843),황미숙교습소,127.0014497,POINT(127.0014497 37.4811843),academy_173,37.4811843
POINT(123.7417741 32.5220203),나순천교습소,123.7417741,POINT(123.7417741 32.5220203),academy_174,32.5220203
POINT(126.9968778 37.5068525),박진우교습소,126.9968778,POINT(126.9968778 37.5068525),academy_175,37.5068525
POINT(126.9968778 37.5068525),강정옥교습소,126.9968778,POINT(126.9968778 37.5068525),academy_176,37.5068525
POINT(127.0115847 37.51004),전희정교습소,127.0115847,POINT(127.0115847 37.51004),academy_177,37.51004
POINT(127.0115847 37.51004),임은순교습소,127.0115847,POINT(127.0115847 37.51004),academy_178,37.51004
POINT(127.0115847 37.51004),박스란교습소,127.0115847,POINT(127.0115847 37.51004),academy_179,37.51004
POINT(127.0115847 37.51004),김경자교습소,127.0115847,POINT(127.0115847 37.51004),academy_180,37.51004
POINT(127.0236865 37.4970845),윈첼영어교습소,127.0236865,POINT(127.0236865 37.4970845),academy_374,37.4970845
POINT(127.0398975 37.4843233),케이원건축학원,127.0398975,POINT(127.0398975 37.4843233),academy_375,37.4843233
POINT(126.9830484 37.4915966),뮤직시티실용음악학원,126.9830484,POINT(126.9830484 37.4915966),academy_376,37.4915966
POINT(127.029503 37.4863198),정수학교습소,127.029503,POINT(127.029503 37.4863198),academy_377,37.4863198
POINT(127.0190881 37.498479),엠지수학교습소,127.0190881,POINT(127.0190881 37.498479),academy_378,37.498479
POINT(127.0095874 37.4985529),쎄컨투넌영어교습소,127.0095874,POINT(127.0095874 37.4985529),academy_379,37.4985529
POINT(126.9994362 37.4812574),한국전통주교육학원,126.9994362,POINT(126.9994362 37.4812574),academy_380,37.4812574
POINT(127.0174565 37.4935367),(주)누리마루학원,127.0174565,POINT(127.0174565 37.4935367),academy_381,37.4935367
POINT(127.030523 37.4852649),양재어썸기타학원,127.030523,POINT(127.030523 37.4852649),academy_382,37.4852649
POINT(127.0055318 37.5067454),시대인재반포센터수학스쿨별관학원,127.0055318,POINT(127.0055318 37.5067454),academy_383,37.5067454
POINT(126.9894806 37.4925979),브리꼴라주미술교습소,126.9894806,POINT(126.9894806 37.4925979),academy_384,37.4925979
POINT(127.0034252 37.506106),홍소랑영어교습소,127.0034252,POINT(127.0034252 37.506106),academy_385,37.506106
POINT(127.0214968 37.5097621),한국예술뷰티아카데미학원,127.0214968,POINT(127.0214968 37.5097621),academy_386,37.5097621
POINT(127.0055318 37.5067454),반포새움학원,127.0055318,POINT(127.0055318 37.5067454),academy_387,37.5067454
POINT(127.0140655 37.4951394),윤선생영어숲반포학원,127.0140655,POINT(127.0140655 37.4951394),academy_388,37.4951394
POINT(126.9894204 37.4953816),애너하임영어교습소,126.9894204,POINT(126.9894204 37.4953816),academy_389,37.4953816
POINT(127.0128276 37.4946785),엔알부동산아카데미학원,127.0128276,POINT(127.0128276 37.4946785),academy_390,37.4946785
POINT(127.0160253 37.4819463),비씨컬리지잇서초어학원,127.0160253,POINT(127.0160253 37.4819463),academy_391,37.4819463
POINT(126.983763 37.4972794),씨엠에스서초제2본원학원,126.983763,POINT(126.983763 37.4972794),academy_392,37.4972794
POINT(127.008196 37.4831874),피아이에프(PIF)서초관영어학원,127.008196,POINT(127.008196 37.4831874),academy_393,37.4831874
POINT(126.9962238 37.4830412),위즈무용학원,126.9962238,POINT(126.9962238 37.4830412),academy_394,37.4830412
POINT(127.0260121 37.500014),에이스요리학원,127.0260121,POINT(127.0260121 37.500014),academy_395,37.500014
POINT(126.984064 37.479225),알파수학교습소,126.984064,POINT(126.984064 37.479225),academy_396,37.479225
POINT(127.0168364 37.4933964),미키어학원,127.0168364,POINT(127.0168364 37.4933964),academy_397,37.4933964
POINT(127.0120964 37.5029711),페디아플러스서초학원,127.0120964,POINT(127.0120964 37.5029711),academy_398,37.5029711
POINT(127.0109178 37.4997174),바른입시가인학원,127.0109178,POINT(127.0109178 37.4997174),academy_399,37.4997174
POINT(127.0120964 37.5029711),서울리체피아노교습소,127.0120964,POINT(127.0120964 37.5029711),academy_400,37.5029711
POINT(127.0214472 37.4936329),정앤정잉글리쉬클럽영어교습소,127.0214472,POINT(127.0214472 37.4936329),academy_401,37.4936329
POINT(127.0320719 37.4747623),이해법양재우성점수학교습소,127.0320719,POINT(127.0320719 37.4747623),academy_402,37.4747623
POINT(127.0101908 37.5025316),제이비잉글리쉬영어교습소,127.0101908,POINT(127.0101908 37.5025316),academy_403,37.5025316
POINT(127.0239744 37.4984294),아이비(IVY)독서실,127.0239744,POINT(127.0239744 37.4984294),academy_404,37.4984294
POINT(127.0011202 37.5059333),반포지니엠국어학원,127.0011202,POINT(127.0011202 37.5059333),academy_405,37.5059333
POINT(127.012825 37.4880017),경사모경매학원,127.012825,POINT(127.012825 37.4880017),academy_406,37.4880017
POINT(127.0202372 37.5100761),실버베리토탈악세서리학원,127.0202372,POINT(127.0202372 37.5100761),academy_407,37.5100761
POINT(127.0276521 37.4886653),이주미영어교습소,127.0276521,POINT(127.0276521 37.4886653),academy_408,37.4886653
POINT(126.9877635 37.496656),기타빌리지기타교습소,126.9877635,POINT(126.9877635 37.496656),academy_409,37.496656
POINT(127.0416584 37.4801296),유디간호학원,127.0416584,POINT(127.0416584 37.4801296),academy_410,37.4801296
POINT(126.9887935 37.4781302),로고스영수전문학원,126.9887935,POINT(126.9887935 37.4781302),academy_411,37.4781302
POINT(126.9885892 37.4865803),에스비에스(SBS)방송아카데미문화예술원 서초캠퍼스학원,126.9885892,POINT(126.9885892 37.4865803),academy_412,37.4865803
POINT(126.9821608 37.4786679),모던케이실용음악학원,126.9821608,POINT(126.9821608 37.4786679),academy_413,37.4786679
POINT(127.0000656 37.4772981),와이제이클라식(YJKlassik)피아노교습소,127.0000656,POINT(127.0000656 37.4772981),academy_414,37.4772981
POINT(127.0500995 37.4715837),아트앤디자인미술교습소,127.0500995,POINT(127.0500995 37.4715837),academy_415,37.4715837
POINT(127.0112172 37.5010265),리얼수학학원,127.0112172,POINT(127.0112172 37.5010265),academy_416,37.5010265
POINT(126.9855618 37.4855181),오드실용음악아카데미학원,126.9855618,POINT(126.9855618 37.4855181),academy_417,37.4855181
POINT(127.0384429 37.480482),노노스창업교육학원,127.0384429,POINT(127.0384429 37.480482),academy_418,37.480482
POINT(126.9822277 37.4804075),아트피아연기학원,126.9822277,POINT(126.9822277 37.4804075),academy_419,37.4804075
POINT(126.9956953 37.5030941),빛미술교습소,126.9956953,POINT(126.9956953 37.5030941),academy_420,37.5030941
POINT(127.0259319 37.4922553),아트포마인드미술교습소,127.0259319,POINT(127.0259319 37.4922553),academy_421,37.4922553
POINT(126.9965569 37.4860355),아트슈에뜨화실(artchouette)미술교습소,126.9965569,POINT(126.9965569 37.4860355),academy_422,37.4860355
POINT(127.0014445 37.5096033),서초잠원이(e)해법수학교습소,127.0014445,POINT(127.0014445 37.5096033),academy_423,37.5096033
POINT(127.0041915 37.4824689),투탑과학수학전문학원,127.0041915,POINT(127.0041915 37.4824689),academy_424,37.4824689
POINT(126.9991399 37.4797321),박상준영어교습소,126.9991399,POINT(126.9991399 37.4797321),academy_425,37.4797321
POINT(126.9880473 37.4957393),뮤즈음악학원,126.9880473,POINT(126.9880473 37.4957393),academy_426,37.4957393
POINT(127.0042389 37.4823071),수아체2관학원,127.0042389,POINT(127.0042389 37.4823071),academy_427,37.4823071
POINT(127.0120964 37.5029711),천지수학교습소,127.0120964,POINT(127.0120964 37.5029711),academy_428,37.5029711
POINT(127.011213 37.5004858),서초덕스어학원,127.011213,POINT(127.011213 37.5004858),academy_429,37.5004858
POINT(127.0014445 37.5096033),첼로이야기음악교습소,127.0014445,POINT(127.0014445 37.5096033),academy_430,37.5096033
POINT(127.0098927 37.5071155),코렉트영어학원,127.0098927,POINT(127.0098927 37.5071155),academy_431,37.5071155
POINT(126.9956953 37.5030941),리드101영어학원,126.9956953,POINT(126.9956953 37.5030941),academy_432,37.5030941
POINT(126.9865979 37.4942041),하모니음악학원,126.9865979,POINT(126.9865979 37.4942041),academy_433,37.4942041
POINT(127.0260121 37.500014),드림보컬실용음악학원,127.0260121,POINT(127.0260121 37.500014),academy_434,37.500014
POINT(127.0267067 37.4987763),우지은더블유(W)스피치학원,127.0267067,POINT(127.0267067 37.4987763),academy_435,37.4987763
POINT(127.0259319 37.4922553),참수학교습소,127.0259319,POINT(127.0259319 37.4922553),academy_436,37.4922553
POINT(127.0101396 37.5029817),엘에스에이에듀어학원,127.0101396,POINT(127.0101396 37.5029817),academy_437,37.5029817
POINT(127.0111962 37.5017651),배쓰그만창의미술학원,127.0111962,POINT(127.0111962 37.5017651),academy_438,37.5017651
POINT(126.9877635 37.496656),샵(#)음악교습소,126.9877635,POINT(126.9877635 37.496656),academy_439,37.496656
POINT(126.9864195 37.4981942),빅토리입시LAB진학상담지도학원,126.9864195,POINT(126.9864195 37.4981942),academy_440,37.4981942
POINT(126.9854378 37.4938518),조엘피아노음악학원,126.9854378,POINT(126.9854378 37.4938518),academy_441,37.4938518
POINT(127.0329323 37.4746702),최상위해법영어수학의달인학원,127.0329323,POINT(127.0329323 37.4746702),academy_442,37.4746702
POINT(127.0150422 37.4931021),논변과소통논술교습소,127.0150422,POINT(127.0150422 37.4931021),academy_443,37.4931021
POINT(126.9822555 37.4808583),오라클자바교육학원,126.9822555,POINT(126.9822555 37.4808583),academy_444,37.4808583
POINT(126.9979501 37.4977069),서래에꼴드뮤직학원,126.9979501,POINT(126.9979501 37.4977069),academy_445,37.4977069
POINT(127.0113838 37.5021181),수학에미친사람들반포관학원,127.0113838,POINT(127.0113838 37.5021181),academy_446,37.5021181
POINT(127.011213 37.5004858),서율학원,127.011213,POINT(127.011213 37.5004858),academy_447,37.5004858
POINT(127.0440268 37.473499),더베스트영어교습소,127.0440268,POINT(127.0440268 37.473499),academy_448,37.473499
POINT(127.0146492 37.5152647),조은수학학원,127.0146492,POINT(127.0146492 37.5152647),academy_449,37.5152647
POINT(126.987741 37.4865911),자라나는미술교습소,126.987741,POINT(126.987741 37.4865911),academy_450,37.4865911
POINT(127.0098927 37.5071155),연세자이음악교습소,127.0098927,POINT(127.0098927 37.5071155),academy_451,37.5071155
POINT(127.0034252 37.506106),이화성악교습소,127.0034252,POINT(127.0034252 37.506106),academy_452,37.506106
POINT(127.0138644 37.4966695),플랜팅아트(planting Art)학원,127.0138644,POINT(127.0138644 37.4966695),academy_453,37.4966695
POINT(126.990073 37.4939546),웅진씽크빅학습센터방배학원,126.990073,POINT(126.990073 37.4939546),academy_454,37.4939546
POINT(127.0091311 37.5133984),에이치엠에이(HMA)수학전문학원,127.0091311,POINT(127.0091311 37.5133984),academy_455,37.5133984
POINT(126.9869203 37.5021451),디엑스수학시즌투학원,126.9869203,POINT(126.9869203 37.5021451),academy_456,37.5021451
POINT(127.0253957 37.4708599),임현미술교습소,127.0253957,POINT(127.0253957 37.4708599),academy_457,37.4708599
POINT(127.0186302 37.5161808),그룹티아이연기학원,127.0186302,POINT(127.0186302 37.5161808),academy_458,37.5161808
POINT(127.0320719 37.4747623),바니아트미술교습소,127.0320719,POINT(127.0320719 37.4747623),academy_459,37.4747623
POINT(127.0072892 37.5072738),샤크에듀학원,127.0072892,POINT(127.0072892 37.5072738),academy_460,37.5072738
POINT(127.0140371 37.4964367),국어신국어교습소,127.0140371,POINT(127.0140371 37.4964367),academy_461,37.4964367
POINT(126.991401 37.4843337),멘토수학학원,126.991401,POINT(126.991401 37.4843337),academy_462,37.4843337
POINT(127.0194991 37.489535),(사)공동체사회포럼러닝컴학원,127.0194991,POINT(127.0194991 37.489535),academy_463,37.489535
POINT(127.0259319 37.4922553),리만영재수학교습소,127.0259319,POINT(127.0259319 37.4922553),academy_464,37.4922553
POINT(127.008056 37.5074515),네오스터디학원,127.008056,POINT(127.008056 37.5074515),academy_465,37.5074515
POINT(126.9892362 37.4956234),서초이엠영어교습소,126.9892362,POINT(126.9892362 37.4956234),academy_466,37.4956234
POINT(127.0311952 37.4743587),마음그림미술교습소,127.0311952,POINT(127.0311952 37.4743587),academy_467,37.4743587
POINT(126.989495 37.4948867),제이에이치에스(JHS)영재교육학원,126.989495,POINT(126.989495 37.4948867),academy_468,37.4948867
POINT(127.025563 37.498893),해커스어학원강남제2별관학원,127.025563,POINT(127.025563 37.498893),academy_469,37.498893
POINT(126.9849788 37.4910005),생각의힘수학학원,126.9849788,POINT(126.9849788 37.4910005),academy_470,37.4910005
POINT(127.0190881 37.498479),서초이화성악교습소,127.0190881,POINT(127.0190881 37.498479),academy_471,37.498479
POINT(127.0433184 37.4802963),오영주프랑스발레바오솔학원,127.0433184,POINT(127.0433184 37.4802963),academy_472,37.4802963
POINT(127.0115643 37.5012907),바른영어교습소,127.0115643,POINT(127.0115643 37.5012907),academy_473,37.5012907
POINT(126.9874554 37.4951846),윤선생우리집앞영어교실서래영어교습소,126.9874554,POINT(126.9874554 37.4951846),academy_474,37.4951846
POINT(127.0159887 37.4881903),클랩어학원,127.0159887,POINT(127.0159887 37.4881903),academy_475,37.4881903
POINT(127.0216186 37.4856871),루키업스마트해법학원,127.0216186,POINT(127.0216186 37.4856871),academy_476,37.4856871
POINT(126.9871492 37.5011109),이룸(e)학원,126.9871492,POINT(126.9871492 37.5011109),academy_477,37.5011109
POINT(126.9893334 37.4951286),삼성영어방배직영학원,126.9893334,POINT(126.9893334 37.4951286),academy_478,37.4951286
POINT(126.9946115 37.4801712),한국광속독교습소,126.9946115,POINT(126.9946115 37.4801712),academy_479,37.4801712
POINT(127.0098927 37.5071155),자이키즈창작미술교습소,127.0098927,POINT(127.0098927 37.5071155),academy_480,37.5071155
POINT(126.9845668 37.4788328),크레용미술교습소,126.9845668,POINT(126.9845668 37.4788328),academy_481,37.4788328
POINT(127.0144997 37.4948006),인투(in2)학원,127.0144997,POINT(127.0144997 37.4948006),academy_482,37.4948006
POINT(127.0126956 37.4858021),유스발레컨서바토리학원,127.0126956,POINT(127.0126956 37.4858021),academy_483,37.4858021
POINT(126.9889629 37.4865384),토커스학원,126.9889629,POINT(126.9889629 37.4865384),academy_484,37.4865384
POINT(127.0072892 37.5072738),해신수학교습소,127.0072892,POINT(127.0072892 37.5072738),academy_485,37.5072738
POINT(127.0259319 37.4922553),민석사영어교습소,127.0259319,POINT(127.0259319 37.4922553),academy_486,37.4922553
POINT(127.0259319 37.4922553),더블유매쓰(W-math)수학교습소,127.0259319,POINT(127.0259319 37.4922553),academy_487,37.4922553
POINT(127.0398792 37.4716092),지메스학원,127.0398792,POINT(127.0398792 37.4716092),academy_488,37.4716092
POINT(126.9963195 37.4843395),삼성영어방배제2직영학원,126.9963195,POINT(126.9963195 37.4843395),academy_489,37.4843395
POINT(127.0057821 37.4827436),이메스터어학원,127.0057821,POINT(127.0057821 37.4827436),academy_490,37.4827436
POINT(127.0191596 37.4860992),메가스터디원격학원,127.0191596,POINT(127.0191596 37.4860992),academy_491,37.4860992
POINT(127.0191596 37.4860992),엠베스트원격학원,127.0191596,POINT(127.0191596 37.4860992),academy_492,37.4860992
POINT(127.0131141 37.4943926),강남부동산아카데미학원,127.0131141,POINT(127.0131141 37.4943926),academy_493,37.4943926
POINT(127.0034252 37.506106),정성배국어교습소,127.0034252,POINT(127.0034252 37.506106),academy_494,37.506106
POINT(127.0139811 37.4903721),달에서온토끼학원,127.0139811,POINT(127.0139811 37.4903721),academy_495,37.4903721
POINT(127.0021861 37.5057261),피피에스(PPS)수학교습소,127.0021861,POINT(127.0021861 37.5057261),academy_497,37.5057261
POINT(127.0104685 37.5012004),에듀플렉스에듀코치개별지도서초학원,127.0104685,POINT(127.0104685 37.5012004),academy_498,37.5012004
POINT(126.984064 37.479225),유카리일본어교습소,126.984064,POINT(126.984064 37.479225),academy_499,37.479225
POINT(127.0089157 37.4911857),서초커피엠비에이아카데미학원,127.0089157,POINT(127.0089157 37.4911857),academy_500,37.4911857
POINT(127.0034252 37.506106),은성영어교습소,127.0034252,POINT(127.0034252 37.506106),academy_501,37.506106
POINT(127.0174633 37.4999252),샤갈의꿈미술교습소,127.0174633,POINT(127.0174633 37.4999252),academy_502,37.4999252
POINT(127.0021861 37.5057261),창창중국어교습소,127.0021861,POINT(127.0021861 37.5057261),academy_503,37.5057261
POINT(127.0222042 37.5040914),데브기어교육학원,127.0222042,POINT(127.0222042 37.5040914),academy_504,37.5040914
POINT(127.0188545 37.5146059),애플공인교육센터MFK학원,127.0188545,POINT(127.0188545 37.5146059),academy_505,37.5146059
POINT(126.9858601 37.4977479),애프엘씨(FLC)영어교습소,126.9858601,POINT(126.9858601 37.4977479),academy_506,37.4977479
POINT(127.0077576 37.4864095),넘버원헤어아카데미학원,127.0077576,POINT(127.0077576 37.4864095),academy_507,37.4864095
POINT(126.9919413 37.4895644),디지털대성원격학원,126.9919413,POINT(126.9919413 37.4895644),academy_508,37.4895644
POINT(127.0194018 37.4961119),이튼하우스수학교습소,127.0194018,POINT(127.0194018 37.4961119),academy_509,37.4961119
POINT(127.0220294 37.4836721),펀액터스화술학원,127.0220294,POINT(127.0220294 37.4836721),academy_510,37.4836721
POINT(127.0249649 37.4639903),로뎀나무음악학원,127.0249649,POINT(127.0249649 37.4639903),academy_511,37.4639903
POINT(127.0232419 37.4617505),우면한우리독서토론논술교습소,127.0232419,POINT(127.0232419 37.4617505),academy_512,37.4617505
POINT(126.9843988 37.4770473),아트인게임아트(Art in GameArt)학원,126.9843988,POINT(126.9843988 37.4770473),academy_513,37.4770473
POINT(127.0154629 37.4868974),경선식에듀원격학원,127.0154629,POINT(127.0154629 37.4868974),academy_514,37.4868974
POINT(127.0257595 37.4985613),해커스공인중개사주택관리사학원,127.0257595,POINT(127.0257595 37.4985613),academy_515,37.4985613
POINT(127.0057703 37.4793736),일월안전교육학원,127.0057703,POINT(127.0057703 37.4793736),academy_517,37.4793736
POINT(127.0014445 37.5096033),백현우과학전문학원,127.0014445,POINT(127.0014445 37.5096033),academy_518,37.5096033
POINT(127.0188717 37.5115605),(주)씨에이치비학원,127.0188717,POINT(127.0188717 37.5115605),academy_519,37.5115605
POINT(126.9831156 37.4933092),윤영숙수학전문3관학원,126.9831156,POINT(126.9831156 37.4933092),academy_520,37.4933092
POINT(126.9869203 37.5021451),아이엠수학학원,126.9869203,POINT(126.9869203 37.5021451),academy_521,37.5021451
POINT(127.0101953 37.5004773),반포스피커스(Banpospeakers)학원,127.0101953,POINT(127.0101953 37.5004773),academy_522,37.5004773
POINT(127.008056 37.5074515),반포대학나무학원,127.008056,POINT(127.008056 37.5074515),academy_523,37.5074515
POINT(127.0100772 37.5162716),해법한신영어교습소,127.0100772,POINT(127.0100772 37.5162716),academy_524,37.5162716
POINT(126.9882964 37.4932005),엠앤에스(M&S)수학교습소,126.9882964,POINT(126.9882964 37.4932005),academy_525,37.4932005
POINT(127.0368701 37.4823343),수학의정석원격학원,127.0368701,POINT(127.0368701 37.4823343),academy_526,37.4823343
POINT(127.0259319 37.4922553),윤선생우리집앞서이?서초영어교습소,127.0259319,POINT(127.0259319 37.4922553),academy_527,37.4922553
POINT(127.0262924 37.4636048),네이처힐음악학원,127.0262924,POINT(127.0262924 37.4636048),academy_529,37.4636048
POINT(126.9956953 37.5030941),관인뮤직트리음악학원,126.9956953,POINT(126.9956953 37.5030941),academy_530,37.5030941
POINT(127.0036799 37.5082166),블루스카이수학학원,127.0036799,POINT(127.0036799 37.5082166),academy_531,37.5082166
POINT(127.0141834 37.5154139),송은희클라리넷교습소,127.0141834,POINT(127.0141834 37.5154139),academy_532,37.5154139
POINT(127.0090945 37.4930614),한국스마트속기학원,127.0090945,POINT(127.0090945 37.4930614),academy_533,37.4930614
POINT(127.0255795 37.464536),한양플러스음악학원,127.0255795,POINT(127.0255795 37.464536),academy_534,37.464536
POINT(126.9832509 37.4874986),아이리스(IRIS)영어전문학원,126.9832509,POINT(126.9832509 37.4874986),academy_535,37.4874986
POINT(127.0208511 37.4838516),스터디코드원격학원,127.0208511,POINT(127.0208511 37.4838516),academy_536,37.4838516
POINT(127.0217007 37.4655132),도무스링구아학원,127.0217007,POINT(127.0217007 37.4655132),academy_537,37.4655132
POINT(126.9877635 37.496656),숲을보는수학교습소,126.9877635,POINT(126.9877635 37.496656),academy_538,37.496656
POINT(126.9970943 37.4864366),스케치북미술교습소,126.9970943,POINT(126.9970943 37.4864366),academy_539,37.4864366
POINT(127.0061031 37.4798539),알탐과학교습소,127.0061031,POINT(127.0061031 37.4798539),academy_540,37.4798539
POINT(127.0262924 37.4636048),에이치비아카데미학원,127.0262924,POINT(127.0262924 37.4636048),academy_541,37.4636048
POINT(126.9947144 37.4978056),리틀러너스어학원,126.9947144,POINT(126.9947144 37.4978056),academy_542,37.4978056
POINT(127.0139482 37.5066358),에스피(SP)수학학원,127.0139482,POINT(127.0139482 37.5066358),academy_543,37.5066358
POINT(127.0246315 37.5018138),올댓뷰티아카데미미용학원,127.0246315,POINT(127.0246315 37.5018138),academy_544,37.5018138
POINT(126.9919623 37.4913667),아트리미술교습소,126.9919623,POINT(126.9919623 37.4913667),academy_545,37.4913667
POINT(126.9982734 37.4811214),서초예일영어교습소,126.9982734,POINT(126.9982734 37.4811214),academy_546,37.4811214
POINT(127.0008014 37.5043898),반포해오름수학교습소,127.0008014,POINT(127.0008014 37.5043898),academy_547,37.5043898
POINT(127.0282025 37.4941843),렉시스코리아학원,127.0282025,POINT(127.0282025 37.4941843),academy_548,37.4941843
POINT(127.0057322 37.4796886),한우리서초남독서논술학원,127.0057322,POINT(127.0057322 37.4796886),academy_549,37.4796886
POINT(127.0462827 37.4685705),서울국제크리스천아카데미(SICA)학원,127.0462827,POINT(127.0462827 37.4685705),academy_550,37.4685705
POINT(127.0402466 37.4835512),매지클학원,127.0402466,POINT(127.0402466 37.4835512),academy_551,37.4835512
POINT(126.9848084 37.4877192),뮤직아카데미물댄동산음악학원,126.9848084,POINT(126.9848084 37.4877192),academy_552,37.4877192
POINT(126.993258 37.4782404),이젠오즈수학교습소,126.993258,POINT(126.993258 37.4782404),academy_553,37.4782404
POINT(127.0115643 37.5012907),생각나무로봇교습소,127.0115643,POINT(127.0115643 37.5012907),academy_554,37.5012907
POINT(126.989298 37.4935605),맑은숲국어논술전문학원,126.989298,POINT(126.989298 37.4935605),academy_555,37.4935605
POINT(127.011089 37.5013137),움뮤직센터음악학원,127.011089,POINT(127.011089 37.5013137),academy_556,37.5013137
POINT(127.0290848 37.4871813),천사아틀리에미술학원,127.0290848,POINT(127.0290848 37.4871813),academy_557,37.4871813
POINT(127.008056 37.5074515),필리아사회탐구학원,127.008056,POINT(127.008056 37.5074515),academy_558,37.5074515
POINT(127.0140371 37.4964367),최상위영수학원,127.0140371,POINT(127.0140371 37.4964367),academy_559,37.4964367
POINT(127.0448779 37.4714695),윤선생우리집앞영어ENI영어교습소,127.0448779,POINT(127.0448779 37.4714695),academy_560,37.4714695
POINT(126.983763 37.4972794),씨엠에스반포학원,126.983763,POINT(126.983763 37.4972794),academy_561,37.4972794
POINT(127.0310252 37.4857736),와이케이수리논술교습소,127.0310252,POINT(127.0310252 37.4857736),academy_562,37.4857736
POINT(126.9888522 37.5014589),마쌤영어보습학원,126.9888522,POINT(126.9888522 37.5014589),academy_563,37.5014589
POINT(127.019723 37.4897081),지지경매교육학원,127.019723,POINT(127.019723 37.4897081),academy_564,37.4897081
POINT(127.0104593 37.5018941),키즈닥터창의성영재학원,127.0104593,POINT(127.0104593 37.5018941),academy_565,37.5018941
POINT(127.0102777 37.5019467),피엔케이수학원,127.0102777,POINT(127.0102777 37.5019467),academy_566,37.5019467
POINT(127.0180135 37.5088592),아트비미술교습소,127.0180135,POINT(127.0180135 37.5088592),academy_567,37.5088592
POINT(127.0282025 37.4941843),리더스경공매학원,127.0282025,POINT(127.0282025 37.4941843),academy_568,37.4941843
POINT(127.0204518 37.4945167),인바스켓학원,127.0204518,POINT(127.0204518 37.4945167),academy_569,37.4945167
POINT(127.0021861 37.5057261),하연영재과학교습소,127.0021861,POINT(127.0021861 37.5057261),academy_570,37.5057261
POINT(127.0104765 37.5023088),케이앤(KN)영어학원,127.0104765,POINT(127.0104765 37.5023088),academy_571,37.5023088
POINT(126.9874554 37.4951846),맨해튼랩프라임영어교습소,126.9874554,POINT(126.9874554 37.4951846),academy_572,37.4951846
POINT(127.0097068 37.4989324),파츠앤팬스학원,127.0097068,POINT(127.0097068 37.4989324),academy_573,37.4989324
POINT(126.9997583 37.4961094),꼭시넬그림책학원,126.9997583,POINT(126.9997583 37.4961094),academy_574,37.4961094
POINT(127.0115643 37.5012907),서초이안어학원,127.0115643,POINT(127.0115643 37.5012907),academy_575,37.5012907
POINT(127.0277348 37.4953698),코리아승무원학원,127.0277348,POINT(127.0277348 37.4953698),academy_576,37.4953698
POINT(127.0277348 37.4953698),코리아항공운항과학원,127.0277348,POINT(127.0277348 37.4953698),academy_577,37.4953698
POINT(127.0040029 37.482197),서준학원미래관학원,127.0040029,POINT(127.0040029 37.482197),academy_578,37.482197
POINT(127.0180232 37.5098504),프랜차이즈아카데미학원,127.0180232,POINT(127.0180232 37.5098504),academy_579,37.5098504
POINT(127.0144668 37.4843932),르씨(R.se)무용전문센터학원,127.0144668,POINT(127.0144668 37.4843932),academy_581,37.4843932
POINT(127.0144668 37.4843932),르씨(R.se)무용전문학원,127.0144668,POINT(127.0144668 37.4843932),academy_582,37.4843932
POINT(127.0391709 37.4801365),아이코어이앤씨학원,127.0391709,POINT(127.0391709 37.4801365),academy_583,37.4801365
POINT(127.0303626 37.4845518),픽스웨이브컨셉아트아카데미학원,127.0303626,POINT(127.0303626 37.4845518),academy_584,37.4845518
POINT(127.0112563 37.5023513),줄리아발레아카데미학원,127.0112563,POINT(127.0112563 37.5023513),academy_585,37.5023513
POINT(127.0205847 37.5094482),배우앤배움아트센터학원,127.0205847,POINT(127.0205847 37.5094482),academy_586,37.5094482
POINT(127.0385614 37.4826995),피에스학원,127.0385614,POINT(127.0385614 37.4826995),academy_587,37.4826995
POINT(127.0246405 37.501994),이디엠아트미술학원,127.0246405,POINT(127.0246405 37.501994),academy_588,37.501994
POINT(127.0112172 37.5010265),절대수학교습소,127.0112172,POINT(127.0112172 37.5010265),academy_589,37.5010265
POINT(127.0220521 37.4584969),뉴칸타빌레음악교습소,127.0220521,POINT(127.0220521 37.4584969),academy_590,37.4584969
POINT(127.0220521 37.4584969),우솔해법영어교습소,127.0220521,POINT(127.0220521 37.4584969),academy_591,37.4584969
POINT(127.0173102 37.4839844),이루다스피치학원,127.0173102,POINT(127.0173102 37.4839844),academy_592,37.4839844
POINT(126.9947183 37.4831726),하이웨이어학원,126.9947183,POINT(126.9947183 37.4831726),academy_593,37.4831726
POINT(126.9826884 37.4797808),방배아벨수학전문학원,126.9826884,POINT(126.9826884 37.4797808),academy_594,37.4797808
POINT(127.0117193 37.5006883),와이즈만서초학원,127.0117193,POINT(127.0117193 37.5006883),academy_595,37.5006883
POINT(127.0100772 37.5162716),제비울학원,127.0100772,POINT(127.0100772 37.5162716),academy_596,37.5162716
POINT(127.0139868 37.4942467),수학일치학원,127.0139868,POINT(127.0139868 37.4942467),academy_597,37.4942467
POINT(127.0131891 37.4818145),레코드팩토리학원,127.0131891,POINT(127.0131891 37.4818145),academy_598,37.4818145
POINT(127.0167345 37.4916746),고도문예창작학원,127.0167345,POINT(127.0167345 37.4916746),academy_599,37.4916746
POINT(127.0286675 37.4923319),강남캠벨아카데미어학원,127.0286675,POINT(127.0286675 37.4923319),academy_600,37.4923319
POINT(126.9973976 37.4823574),서초씨앤씨미술학원,126.9973976,POINT(126.9973976 37.4823574),academy_601,37.4823574
POINT(127.0219391 37.5088017),그리다(Gree.Da)미술교습소,127.0219391,POINT(127.0219391 37.5088017),academy_602,37.5088017
POINT(127.0150619 37.4950486),선맹수의튜터링영어교습소,127.0150619,POINT(127.0150619 37.4950486),academy_603,37.4950486
POINT(127.0431344 37.4761049),에이브이에이(AVA)사진학원,127.0431344,POINT(127.0431344 37.4761049),academy_604,37.4761049
POINT(127.0104777 37.4996417),반포스마트러닝센터학원,127.0104777,POINT(127.0104777 37.4996417),academy_605,37.4996417
POINT(126.9955141 37.4836929),오즈액팅연기학원,126.9955141,POINT(126.9955141 37.4836929),academy_606,37.4836929
POINT(127.0217403 37.5015015),에이플수학교습소,127.0217403,POINT(127.0217403 37.5015015),academy_607,37.5015015
POINT(127.0052559 37.4823517),이티씨(ETC)영어교습소,127.0052559,POINT(127.0052559 37.4823517),academy_608,37.4823517
POINT(127.0143407 37.5197943),썬(sun)영어교습소,127.0143407,POINT(127.0143407 37.5197943),academy_609,37.5197943
POINT(126.9842675 37.4834076),피아니스트김민정아카데미방배이화음악교습소,126.9842675,POINT(126.9842675 37.4834076),academy_610,37.4834076
POINT(127.0105586 37.5037962),창조적소수미술학원,127.0105586,POINT(127.0105586 37.5037962),academy_611,37.5037962
POINT(126.9956953 37.5030941),홍익명문미술학원,126.9956953,POINT(126.9956953 37.5030941),academy_612,37.5030941
POINT(127.0104685 37.5012004),상상논술교습소,127.0104685,POINT(127.0104685 37.5012004),academy_613,37.5012004
POINT(127.0121487 37.5024309),가람과학교습소,127.0121487,POINT(127.0121487 37.5024309),academy_614,37.5024309
POINT(126.9956953 37.5030941),수학캠프수학전문학원,126.9956953,POINT(126.9956953 37.5030941),academy_615,37.5030941
POINT(127.0102102 37.5002071),청담아이가르텐학원,127.0102102,POINT(127.0102102 37.5002071),academy_616,37.5002071
POINT(127.0011202 37.5059333),반포세정2관학원,127.0011202,POINT(127.0011202 37.5059333),academy_617,37.5059333
POINT(127.0117193 37.5006883),와이즈만영재입시센터중등학원,127.0117193,POINT(127.0117193 37.5006883),academy_618,37.5006883
POINT(127.0072892 37.5072738),프라임수학교습소,127.0072892,POINT(127.0072892 37.5072738),academy_619,37.5072738
POINT(127.0014445 37.5096033),민정아트미술교습소,127.0014445,POINT(127.0014445 37.5096033),academy_620,37.5096033
POINT(126.9877635 37.496656),서래한우리독서논술교습소,126.9877635,POINT(126.9877635 37.496656),academy_621,37.496656
POINT(127.0021861 37.5057261),에스엔케이영어교습소,127.0021861,POINT(127.0021861 37.5057261),academy_622,37.5057261
POINT(127.0174633 37.4999252),도르레아트창작소미술학원,127.0174633,POINT(127.0174633 37.4999252),academy_623,37.4999252
POINT(127.0255795 37.464536),다비오학원,127.0255795,POINT(127.0255795 37.464536),academy_624,37.464536
POINT(127.0102144 37.4887458),플로아트 플로리스트 아카데미학원,127.0102144,POINT(127.0102144 37.4887458),academy_625,37.4887458
POINT(127.0406356 37.4787698),디쿨그레이학원,127.0406356,POINT(127.0406356 37.4787698),academy_626,37.4787698
POINT(126.9968983 37.4833353),라임매쓰(Lime Math)학원,126.9968983,POINT(126.9968983 37.4833353),academy_628,37.4833353
POINT(127.0189648 37.511363),씨오엘아카데미학원,127.0189648,POINT(127.0189648 37.511363),academy_629,37.511363
POINT(127.0259319 37.4922553),매쓰101수학교습소,127.0259319,POINT(127.0259319 37.4922553),academy_630,37.4922553
POINT(127.0000133 37.5049688),수학쟁이들학원,127.0000133,POINT(127.0000133 37.5049688),academy_631,37.5049688
POINT(126.9999844 37.4995082),매쓰홀릭학원,126.9999844,POINT(126.9999844 37.4995082),academy_632,37.4995082
POINT(127.0154549 37.4564778),올림피아드함수학원,127.0154549,POINT(127.0154549 37.4564778),academy_633,37.4564778
POINT(126.9991399 37.4797321),방배스즈키음악학원,126.9991399,POINT(126.9991399 37.4797321),academy_634,37.4797321
POINT(127.0008014 37.5043898),영재음악교습소,127.0008014,POINT(127.0008014 37.5043898),academy_635,37.5043898
POINT(127.0176131 37.4599828),대한민국명장김영모아카데미학원,127.0176131,POINT(127.0176131 37.4599828),academy_636,37.4599828
POINT(127.0102675 37.5010005),아우다키아보습학원,127.0102675,POINT(127.0102675 37.5010005),academy_637,37.5010005
POINT(127.0285595 37.4928176),커리어칼리지학원,127.0285595,POINT(127.0285595 37.4928176),academy_639,37.4928176
POINT(127.0386507 37.4845564),리세움댄스스포츠학원,127.0386507,POINT(127.0386507 37.4845564),academy_640,37.4845564
POINT(127.046149 37.4719754),제이엠(JM)영수전문학원,127.046149,POINT(127.046149 37.4719754),academy_641,37.4719754
POINT(126.9877072 37.4890957),다솔음악학원,126.9877072,POINT(126.9877072 37.4890957),academy_642,37.4890957
POINT(127.02239 37.4837652),유나이티드영재음악학원,127.02239,POINT(127.02239 37.4837652),academy_643,37.4837652
POINT(126.996786 37.4832803),원탑잉글리쉬(ONETOPENGLISH)영어교습소,126.996786,POINT(126.996786 37.4832803),academy_644,37.4832803
POINT(126.9874554 37.4951846),맨해튼랩에이스영어교습소,126.9874554,POINT(126.9874554 37.4951846),academy_645,37.4951846
POINT(126.9862305 37.4979583),하다수학교습소,126.9862305,POINT(126.9862305 37.4979583),academy_646,37.4979583
POINT(126.9886189 37.4919238),문준영&커넥트영어학원,126.9886189,POINT(126.9886189 37.4919238),academy_648,37.4919238
POINT(127.0138058 37.4959662),서초우리들학원,127.0138058,POINT(127.0138058 37.4959662),academy_649,37.4959662
POINT(126.9838364 37.4885218),그레잇에듀학원,126.9838364,POINT(126.9838364 37.4885218),academy_650,37.4885218
POINT(127.0008014 37.5043898),현진피아노교습소,127.0008014,POINT(127.0008014 37.5043898),academy_651,37.5043898
POINT(127.0139482 37.5066358),코어아카데미영어교습소,127.0139482,POINT(127.0139482 37.5066358),academy_652,37.5066358
POINT(127.0636548 37.4543375),내곡프린스턴영어교습소,127.0636548,POINT(127.0636548 37.4543375),academy_653,37.4543375
POINT(127.0636548 37.4543375),아트뮤지엄미술교습소,127.0636548,POINT(127.0636548 37.4543375),academy_655,37.4543375
POINT(127.0101914 37.5033426),수학몬스터서초학원,127.0101914,POINT(127.0101914 37.5033426),academy_656,37.5033426
POINT(127.0201381 37.4960189),수학과학의미학원,127.0201381,POINT(127.0201381 37.4960189),academy_657,37.4960189
POINT(127.0189044 37.5168409),더큐브아카데미학원,127.0189044,POINT(127.0189044 37.5168409),academy_658,37.5168409
POINT(127.0100772 37.5162716),탑에듀영어교습소,127.0100772,POINT(127.0100772 37.5162716),academy_659,37.5162716
POINT(126.9964418 37.4861877),윤선생우리집앞영어교실방일새라영어교습소,126.9964418,POINT(126.9964418 37.4861877),academy_660,37.4861877
POINT(127.015673 37.4950086),토즈스터디센터교대역독서실,127.015673,POINT(127.015673 37.4950086),academy_661,37.4950086
POINT(127.0008014 37.5043898),코어원에듀학원,127.0008014,POINT(127.0008014 37.5043898),academy_662,37.5043898
POINT(126.985312 37.4964637),토즈스터디센터방배독서실,126.985312,POINT(126.985312 37.4964637),academy_663,37.4964637
POINT(127.0164141 37.4954113),주한영국문화원영러너서초어학원,127.0164141,POINT(127.0164141 37.4954113),academy_664,37.4954113
POINT(127.0146492 37.5152647),버밍엄영어전문학원,127.0146492,POINT(127.0146492 37.5152647),academy_665,37.5152647
POINT(127.0098927 37.5071155),마루국어논술학원,127.0098927,POINT(127.0098927 37.5071155),academy_666,37.5071155
POINT(127.0098927 37.5071155),한뮤직컴퍼니뮤지컬교습소,127.0098927,POINT(127.0098927 37.5071155),academy_667,37.5071155
POINT(127.0285717 37.4866365),류지연음악교습소,127.0285717,POINT(127.0285717 37.4866365),academy_668,37.4866365
POINT(127.0259319 37.4922553),퍼펙트영어교습소,127.0259319,POINT(127.0259319 37.4922553),academy_669,37.4922553
POINT(127.0111962 37.5017651),케이매쓰(K MATH)수학교습소,127.0111962,POINT(127.0111962 37.5017651),academy_670,37.5017651
POINT(126.9947134 37.5054735),킹스수학교습소,126.9947134,POINT(126.9947134 37.5054735),academy_671,37.5054735
POINT(126.9962046 37.4819418),서초경매아카데미학원,126.9962046,POINT(126.9962046 37.4819418),academy_672,37.4819418
POINT(127.0151312 37.494932),제이발레스튜디오학원,127.0151312,POINT(127.0151312 37.494932),academy_673,37.494932
POINT(127.0108133 37.5033568),집단지성학원,127.0108133,POINT(127.0108133 37.5033568),academy_674,37.5033568
POINT(127.0144698 37.49535),용문학원,127.0144698,POINT(127.0144698 37.49535),academy_675,37.49535
POINT(127.0257595 37.4985613),해커스해외대학입시전문학원,127.0257595,POINT(127.0257595 37.4985613),academy_676,37.4985613
POINT(127.0101438 37.5018104),하우투스터디과학학원,127.0101438,POINT(127.0101438 37.5018104),academy_677,37.5018104
POINT(127.0462422 37.4753191),솔루니양재논술교습소,127.0462422,POINT(127.0462422 37.4753191),academy_679,37.4753191
POINT(127.0038922 37.4828718),지니어스입시미술교습소,127.0038922,POINT(127.0038922 37.4828718),academy_680,37.4828718
POINT(127.0180203 37.5169777),황액터스학원,127.0180203,POINT(127.0180203 37.5169777),academy_681,37.5169777
POINT(126.9956953 37.5030941),아르코아트미술교습소,126.9956953,POINT(126.9956953 37.5030941),academy_682,37.5030941
POINT(126.985518 37.4787238),해법영어서초이수아카데미영어교습소,126.985518,POINT(126.985518 37.4787238),academy_683,37.4787238
POINT(127.0170428 37.4931729),람아트스쿨학원,127.0170428,POINT(127.0170428 37.4931729),academy_684,37.4931729
POINT(127.0113838 37.5021181),고수학학원,127.0113838,POINT(127.0113838 37.5021181),academy_685,37.5021181
POINT(127.008056 37.5074515),인바이올린교습소,127.008056,POINT(127.008056 37.5074515),academy_686,37.5074515
POINT(127.0416806 37.4686504),숙명킨더아카데미학원,127.0416806,POINT(127.0416806 37.4686504),academy_687,37.4686504
POINT(126.9975507 37.4979739),씨이티(CET)영어학원,126.9975507,POINT(126.9975507 37.4979739),academy_688,37.4979739
POINT(126.9830606 37.4906957),스페라학원,126.9830606,POINT(126.9830606 37.4906957),academy_689,37.4906957
POINT(127.0041915 37.4824689),신대산영어전문학원,127.0041915,POINT(127.0041915 37.4824689),academy_690,37.4824689
POINT(127.0154549 37.4564778),더엠브릿지영어학원,127.0154549,POINT(127.0154549 37.4564778),academy_691,37.4564778
POINT(127.0048897 37.5065508),윤정영어학원,127.0048897,POINT(127.0048897 37.5065508),academy_692,37.5065508
POINT(127.0599746 37.4566871),제니스아카데미학원,127.0599746,POINT(127.0599746 37.4566871),academy_693,37.4566871
POINT(127.0130707 37.491671),소도스카이학원,127.0130707,POINT(127.0130707 37.491671),academy_694,37.491671
POINT(127.0599746 37.4566871),포레스타음악학원,127.0599746,POINT(127.0599746 37.4566871),academy_695,37.4566871
POINT(127.0406624 37.4687142),이지에듀학원,127.0406624,POINT(127.0406624 37.4687142),academy_696,37.4687142
POINT(126.9901596 37.5017944),신대찬학원,126.9901596,POINT(126.9901596 37.5017944),academy_697,37.5017944
POINT(127.0599746 37.4566871),바오밥나무미술교습소,127.0599746,POINT(127.0599746 37.4566871),academy_698,37.4566871
POINT(126.9860762 37.4909649),안스스피치학원,126.9860762,POINT(126.9860762 37.4909649),academy_699,37.4909649
POINT(127.008056 37.5074515),오은정국어논술전문학원,127.008056,POINT(127.008056 37.5074515),academy_700,37.5074515
POINT(127.0144618 37.4925206),강남대성별관학원,127.0144618,POINT(127.0144618 37.4925206),academy_701,37.4925206
POINT(127.0043609 37.4824883),서준학원지혜관학원,127.0043609,POINT(127.0043609 37.4824883),academy_702,37.4824883
POINT(127.0107782 37.5025816),그린램프라이브러리반포캠퍼스독서실,127.0107782,POINT(127.0107782 37.5025816),academy_703,37.5025816
POINT(127.0130707 37.491671),소도스카이원격학원,127.0130707,POINT(127.0130707 37.491671),academy_704,37.491671
POINT(127.0090872 37.483339),자유의날개국어논술학원,127.0090872,POINT(127.0090872 37.483339),academy_705,37.483339
POINT(127.012765 37.4882625),소다뮤직아카데미학원,127.012765,POINT(127.012765 37.4882625),academy_706,37.4882625
POINT(126.9861493 37.4863972),최신고등수학교습소,126.9861493,POINT(126.9861493 37.4863972),academy_707,37.4863972
POINT(127.024742 37.4985349),박문각강남고시1별관학원,127.024742,POINT(127.024742 37.4985349),academy_708,37.4985349
POINT(127.0061031 37.4798539),윤쌤수학교습소,127.0061031,POINT(127.0061031 37.4798539),academy_709,37.4798539
POINT(127.0021861 37.5057261),논술및올댓역사논술교습소,127.0021861,POINT(127.0021861 37.5057261),academy_710,37.5057261
POINT(127.0141834 37.5154139),서초신동한우리독서토론논술교습소,127.0141834,POINT(127.0141834 37.5154139),academy_711,37.5154139
POINT(127.0076794 37.4803537),소리나무음악교습소,127.0076794,POINT(127.0076794 37.4803537),academy_712,37.4803537
POINT(126.9869203 37.5021451),젠(ZEN)수학교습소,126.9869203,POINT(126.9869203 37.5021451),academy_713,37.5021451
POINT(127.0450577 37.4715611),한탑언남1관학원,127.0450577,POINT(127.0450577 37.4715611),academy_714,37.4715611
POINT(127.0207192 37.4922213),인더페이퍼학원,127.0207192,POINT(127.0207192 37.4922213),academy_715,37.4922213
POINT(127.011213 37.5004858),작은별음악학원,127.011213,POINT(127.011213 37.5004858),academy_716,37.5004858
POINT(127.0286675 37.4923319),핸섬아트(Handsome Art)학원,127.0286675,POINT(127.0286675 37.4923319),academy_717,37.4923319
POINT(127.0101914 37.5033426),스파크어학원,127.0101914,POINT(127.0101914 37.5033426),academy_718,37.5033426
POINT(127.0042389 37.4823071),넥서스학원,127.0042389,POINT(127.0042389 37.4823071),academy_719,37.4823071
POINT(126.996834 37.4830734),뷰미술학원,126.996834,POINT(126.996834 37.4830734),academy_720,37.4830734
POINT(127.0108133 37.5033568),다온수학학원,127.0108133,POINT(127.0108133 37.5033568),academy_721,37.5033568
POINT(127.0287126 37.4932153),올검정고시원격학원,127.0287126,POINT(127.0287126 37.4932153),academy_722,37.4932153
POINT(127.011455 37.5018664),오르다샘앤클래스반포학원,127.011455,POINT(127.011455 37.5018664),academy_723,37.5018664
POINT(127.0226022 37.5073925),오투학원,127.0226022,POINT(127.0226022 37.5073925),academy_724,37.5073925
POINT(127.0262116 37.498583),드림댄스학원,127.0262116,POINT(127.0262116 37.498583),academy_725,37.498583
POINT(126.9845668 37.4788328),에이스수학교습소,126.9845668,POINT(126.9845668 37.4788328),academy_726,37.4788328
POINT(127.0174633 37.4999252),비전매쓰수학교습소,127.0174633,POINT(127.0174633 37.4999252),academy_727,37.4999252
POINT(127.0076794 37.4803537),러빈아트(Lovin\' art)미술교습소,127.0076794,POINT(127.0076794 37.4803537),academy_728,37.4803537
POINT(127.0249649 37.4639903),두형호영어교습소,127.0249649,POINT(127.0249649 37.4639903),academy_730,37.4639903
POINT(126.98399 37.4938754),소통과공감미술교습소,126.98399,POINT(126.98399 37.4938754),academy_731,37.4938754
POINT(127.0101379 37.5022519),스카이국어논술학원,127.0101379,POINT(127.0101379 37.5022519),academy_732,37.5022519
POINT(127.0008014 37.5043898),시대인재반포센터학원,127.0008014,POINT(127.0008014 37.5043898),academy_733,37.5043898
POINT(127.0275223 37.4646512),뮤엠스카이엠영어교습소,127.0275223,POINT(127.0275223 37.4646512),academy_734,37.4646512
POINT(126.9842323 37.4818304),라온수학교습소,126.9842323,POINT(126.9842323 37.4818304),academy_735,37.4818304
POINT(126.9870974 37.4865225),방배해법수학교습소,126.9870974,POINT(126.9870974 37.4865225),academy_736,37.4865225
POINT(126.9893478 37.4932185),수학시간학원,126.9893478,POINT(126.9893478 37.4932185),academy_737,37.4932185
POINT(127.0114993 37.4856299),뮤직라이브러리원격학원,127.0114993,POINT(127.0114993 37.4856299),academy_738,37.4856299
POINT(127.0113091 37.5000631),키즈스피치예소스학원,127.0113091,POINT(127.0113091 37.5000631),academy_739,37.5000631
POINT(127.0100772 37.5162716),안녕국어교습소,127.0100772,POINT(127.0100772 37.5162716),academy_740,37.5162716
POINT(127.0248042 37.4911468),핫클레이스(hotclays)도예교습소,127.0248042,POINT(127.0248042 37.4911468),academy_741,37.4911468
POINT(127.0006421 37.4790059),아르스피아노교습소,127.0006421,POINT(127.0006421 37.4790059),academy_742,37.4790059
POINT(127.0006421 37.4790059),돌체플루트교습소,127.0006421,POINT(127.0006421 37.4790059),academy_743,37.4790059
POINT(127.0259247 37.4875878),아람플러스학원,127.0259247,POINT(127.0259247 37.4875878),academy_744,37.4875878
POINT(127.045778 37.4718102),폴고갱미술교습소,127.045778,POINT(127.045778 37.4718102),academy_745,37.4718102
POINT(127.0409167 37.4691578),한국꽃예술학원,127.0409167,POINT(127.0409167 37.4691578),academy_746,37.4691578
POINT(127.0210749 37.4840337),한국전통발효아카데미학원,127.0210749,POINT(127.0210749 37.4840337),academy_747,37.4840337
POINT(127.0163573 37.4859497),더블유(W)방송연기학원,127.0163573,POINT(127.0163573 37.4859497),academy_748,37.4859497
POINT(127.0109346 37.5001591),세인트폴서울학원,127.0109346,POINT(127.0109346 37.5001591),academy_749,37.5001591
POINT(127.0109346 37.5001591),세인트폴프리페라토리서울(Saint Paul Preparatory Seoul)학원,127.0109346,POINT(127.0109346 37.5001591),academy_750,37.5001591
POINT(127.0176912 37.511875),힘멜학원,127.0176912,POINT(127.0176912 37.511875),academy_751,37.511875
POINT(127.0279529 37.4951193),누나영아카데미어학원,127.0279529,POINT(127.0279529 37.4951193),academy_752,37.4951193
POINT(127.0398101 37.4823132),한미술교습소,127.0398101,POINT(127.0398101 37.4823132),academy_753,37.4823132
POINT(127.0098927 37.5071155),상위권수학자이학원,127.0098927,POINT(127.0098927 37.5071155),academy_755,37.5071155
POINT(127.0008014 37.5043898),웨스턴영어학원,127.0008014,POINT(127.0008014 37.5043898),academy_756,37.5043898
POINT(127.0012576 37.5058083),그린램프라이브러리반포2캠퍼스독서실,127.0012576,POINT(127.0012576 37.5058083),academy_757,37.5058083
POINT(127.0217403 37.5015015),장지윤바이올린교습소,127.0217403,POINT(127.0217403 37.5015015),academy_758,37.5015015
POINT(127.0094136 37.4834499),서초국어논술교습소,127.0094136,POINT(127.0094136 37.4834499),academy_759,37.4834499
POINT(127.0455145 37.4720874),스타에듀학원,127.0455145,POINT(127.0455145 37.4720874),academy_760,37.4720874
POINT(127.0101216 37.5034862),꽃피다국어교습소,127.0101216,POINT(127.0101216 37.5034862),academy_761,37.5034862
POINT(127.0562945 37.4473228),김쌤수학교습소,127.0562945,POINT(127.0562945 37.4473228),academy_762,37.4473228
POINT(127.0274887 37.4724811),코오롱피아노교습소,127.0274887,POINT(127.0274887 37.4724811),academy_763,37.4724811
POINT(127.0104685 37.5012004),이루다수학학원,127.0104685,POINT(127.0104685 37.5012004),academy_764,37.5012004
POINT(126.9874334 37.5026721),아카데미라운지구반포독서실,126.9874334,POINT(126.9874334 37.5026721),academy_765,37.5026721
POINT(127.0253052 37.4699942),잉글리쉬101영어학원,127.0253052,POINT(127.0253052 37.4699942),academy_766,37.4699942
POINT(127.0113091 37.5000631),엠아이서초어학원,127.0113091,POINT(127.0113091 37.5000631),academy_767,37.5000631
POINT(127.0112563 37.5023513),엘아이엘(LIL)영어교습소,127.0112563,POINT(127.0112563 37.5023513),academy_768,37.5023513
POINT(126.9864856 37.4866073),아롱다롱음악교습소,126.9864856,POINT(126.9864856 37.4866073),academy_769,37.4866073
POINT(127.0034252 37.506106),공감국어교습소,127.0034252,POINT(127.0034252 37.506106),academy_770,37.506106
POINT(127.0120964 37.5029711),서앤박수학학원,127.0120964,POINT(127.0120964 37.5029711),academy_771,37.5029711
POINT(127.0118486 37.5003199),서초크라센어학원,127.0118486,POINT(127.0118486 37.5003199),academy_772,37.5003199
POINT(127.023229 37.5052982),발레플러스발레학원,127.023229,POINT(127.023229 37.5052982),academy_773,37.5052982
POINT(126.9858738 37.4908821),수자담수학전문학원,126.9858738,POINT(126.9858738 37.4908821),academy_774,37.4908821
POINT(127.0054708 37.4823445),서리풀랩독서실,127.0054708,POINT(127.0054708 37.4823445),academy_775,37.4823445
POINT(127.0142996 37.4885096),이영준아카데미학원,127.0142996,POINT(127.0142996 37.4885096),academy_776,37.4885096
POINT(127.0055318 37.5067454),공간수학교습소,127.0055318,POINT(127.0055318 37.5067454),academy_777,37.5067454
POINT(127.0259319 37.4922553),서초애플과학교습소,127.0259319,POINT(127.0259319 37.4922553),academy_778,37.4922553
POINT(127.0200648 37.4635353),엘앤케이(LNK)영어교습소,127.0200648,POINT(127.0200648 37.4635353),academy_779,37.4635353
POINT(127.0094136 37.4834499),길찬국어교습소,127.0094136,POINT(127.0094136 37.4834499),academy_780,37.4834499
POINT(126.9956953 37.5030941),산김영준국어논술전문학원,126.9956953,POINT(126.9956953 37.5030941),academy_781,37.5030941
POINT(127.0174069 37.4938697),이투스투포세븐학원,127.0174069,POINT(127.0174069 37.4938697),academy_782,37.4938697
POINT(127.0072892 37.5072738),전수진과학교습소,127.0072892,POINT(127.0072892 37.5072738),academy_783,37.5072738
POINT(126.9842424 37.4819206),종이에서꿈꾸는미술교습소,126.9842424,POINT(126.9842424 37.4819206),academy_784,37.4819206
POINT(126.9856682 37.4977192),제이매쓰수학학원,126.9856682,POINT(126.9856682 37.4977192),academy_785,37.4977192
POINT(127.0105586 37.5037962),입시창조적소수미술학원,127.0105586,POINT(127.0105586 37.5037962),academy_786,37.5037962
POINT(127.0048897 37.5065508),매쓰매티카(Mathematica)수학교습소,127.0048897,POINT(127.0048897 37.5065508),academy_787,37.5065508
POINT(127.0140803 37.4965902),맘스(moms)수학학원,127.0140803,POINT(127.0140803 37.4965902),academy_788,37.4965902
POINT(127.0146492 37.5152647),플라이매쓰(FLY MATH)학원,127.0146492,POINT(127.0146492 37.5152647),academy_789,37.5152647
POINT(127.0014445 37.5096033),내담논술교습소,127.0014445,POINT(127.0014445 37.5096033),academy_790,37.5096033
POINT(126.9910457 37.487214),코어과학수학학원,126.9910457,POINT(126.9910457 37.487214),academy_791,37.487214
POINT(127.0173716 37.5129626),더블에이트연기학원,127.0173716,POINT(127.0173716 37.5129626),academy_792,37.5129626
POINT(127.0322158 37.4749978),서초청담클루빌어학원,127.0322158,POINT(127.0322158 37.4749978),academy_793,37.4749978
POINT(127.0174633 37.4999252),어썸팩토리서초플레이스독서실,127.0174633,POINT(127.0174633 37.4999252),academy_794,37.4999252
POINT(127.0100772 37.5162716),링구아프랑카영어교습소,127.0100772,POINT(127.0100772 37.5162716),academy_795,37.5162716
POINT(127.0048897 37.5065508),온수학교습소,127.0048897,POINT(127.0048897 37.5065508),academy_796,37.5065508
POINT(127.0165776 37.4932951),교대그로티학원,127.0165776,POINT(127.0165776 37.4932951),academy_797,37.4932951
POINT(126.9869203 37.5021451),한율학원,126.9869203,POINT(126.9869203 37.5021451),academy_798,37.5021451
POINT(127.0236865 37.4970845),서초진흥한우리독서토론논술교습소,127.0236865,POINT(127.0236865 37.4970845),academy_799,37.4970845
POINT(127.0010156 37.5061397),반포이엠서초해법수학학원,127.0010156,POINT(127.0010156 37.5061397),academy_800,37.5061397
POINT(126.9892669 37.492506),김정에듀학원,126.9892669,POINT(126.9892669 37.492506),academy_801,37.492506
POINT(127.0092948 37.5035783),로앤장수학학원,127.0092948,POINT(127.0092948 37.5035783),academy_802,37.5035783
POINT(127.0008014 37.5043898),아트멘토미술학원,127.0008014,POINT(127.0008014 37.5043898),academy_803,37.5043898
POINT(127.0075413 37.4831008),수학에미친사람들서초학원,127.0075413,POINT(127.0075413 37.4831008),academy_804,37.4831008
POINT(127.0259319 37.4922553),생각하는두꺼비수학5관학원,127.0259319,POINT(127.0259319 37.4922553),academy_805,37.4922553
POINT(127.0102675 37.5010005),생각의탄생학원,127.0102675,POINT(127.0102675 37.5010005),academy_806,37.5010005
POINT(127.0014445 37.5096033),제니아트미술교습소,127.0014445,POINT(127.0014445 37.5096033),academy_807,37.5096033
POINT(126.9989431 37.4987245),서정음악학원,126.9989431,POINT(126.9989431 37.4987245),academy_808,37.4987245
POINT(127.0452942 37.4716261),이안학원,127.0452942,POINT(127.0452942 37.4716261),academy_809,37.4716261
POINT(126.9874554 37.4951846),한수연과학교습소,126.9874554,POINT(126.9874554 37.4951846),academy_810,37.4951846
POINT(127.0045351 37.4821384),자몽미술학원,127.0045351,POINT(127.0045351 37.4821384),academy_811,37.4821384
POINT(127.0207994 37.4904108),강남스즈키음악학원,127.0207994,POINT(127.0207994 37.4904108),academy_812,37.4904108
POINT(127.0174633 37.4999252),곽선생중국어교습소,127.0174633,POINT(127.0174633 37.4999252),academy_813,37.4999252
POINT(127.0255795 37.464536),서초우면소마학원,127.0255795,POINT(127.0255795 37.464536),academy_814,37.464536
POINT(127.0053862 37.4861733),아이크리스마스어학원,127.0053862,POINT(127.0053862 37.4861733),academy_815,37.4861733
POINT(127.0259319 37.4922553),미술관그림미술교습소,127.0259319,POINT(127.0259319 37.4922553),academy_816,37.4922553
POINT(126.985494 37.4846796),에꼴드아미(ecole de ami)미술교습소,126.985494,POINT(126.985494 37.4846796),academy_817,37.4846796
POINT(127.0144637 37.4915115),조건반사영어원격학원,127.0144637,POINT(127.0144637 37.4915115),academy_818,37.4915115
POINT(127.0572224 37.4517274),뮤직슐레음악교습소,127.0572224,POINT(127.0572224 37.4517274),academy_819,37.4517274
POINT(127.0166687 37.5148039),위첼아카데미학원,127.0166687,POINT(127.0166687 37.5148039),academy_820,37.5148039
POINT(126.9862387 37.4931648),홀리프레이즈음악학원,126.9862387,POINT(126.9862387 37.4931648),academy_821,37.4931648
POINT(127.0034252 37.506106),과학의진수학원,127.0034252,POINT(127.0034252 37.506106),academy_822,37.506106
POINT(127.008056 37.5074515),생각하는두꺼비수학8관학원,127.008056,POINT(127.008056 37.5074515),academy_823,37.5074515
POINT(126.9896107 37.4946895),어썸팩토리방배독서실,126.9896107,POINT(126.9896107 37.4946895),academy_824,37.4946895
POINT(126.9900476 37.4924766),브라가밸리잉글리쉬학원,126.9900476,POINT(126.9900476 37.4924766),academy_825,37.4924766
POINT(127.0014445 37.5096033),잠원스타스즈키바이올린교습소,127.0014445,POINT(127.0014445 37.5096033),academy_826,37.5096033
POINT(127.0174633 37.4999252),세움(seum)학원,127.0174633,POINT(127.0174633 37.4999252),academy_827,37.4999252
POINT(127.0008014 37.5043898),아이들미술교습소,127.0008014,POINT(127.0008014 37.5043898),academy_828,37.5043898
POINT(126.9834123 37.4872747),문재호국어논술교습소,126.9834123,POINT(126.9834123 37.4872747),academy_829,37.4872747
POINT(126.9829008 37.4824677),더리얼학원,126.9829008,POINT(126.9829008 37.4824677),academy_830,37.4824677
POINT(127.0034252 37.506106),윤쎈과학교습소,127.0034252,POINT(127.0034252 37.506106),academy_831,37.506106
POINT(127.0259319 37.4922553),한선생중국어교습소,127.0259319,POINT(127.0259319 37.4922553),academy_832,37.4922553
POINT(126.9973976 37.4823574),서초애니스타만화학원,126.9973976,POINT(126.9973976 37.4823574),academy_833,37.4823574
POINT(127.024887 37.4917331),생각이룸독서논술국어학원,127.024887,POINT(127.024887 37.4917331),academy_834,37.4917331
POINT(127.0012576 37.5058083),세빛관학원,127.0012576,POINT(127.0012576 37.5058083),academy_835,37.5058083
POINT(127.0282025 37.4941843),렉시스어학원,127.0282025,POINT(127.0282025 37.4941843),academy_836,37.4941843
POINT(127.0397977 37.4850523),숲컴퍼니연기학원,127.0397977,POINT(127.0397977 37.4850523),academy_837,37.4850523
POINT(127.0139828 37.490246),케이알(KR)부동산아카데미학원,127.0139828,POINT(127.0139828 37.490246),academy_838,37.490246
POINT(127.0150422 37.4931021),논통아카데미학원,127.0150422,POINT(127.0150422 37.4931021),academy_839,37.4931021
POINT(126.9983666 37.4809149),수퍼(super)매쓰(math)학원,126.9983666,POINT(126.9983666 37.4809149),academy_840,37.4809149
POINT(127.0438654 37.4710829),서울중앙음악학원,127.0438654,POINT(127.0438654 37.4710829),academy_841,37.4710829
POINT(127.0014445 37.5096033),연세포레피아노교습소,127.0014445,POINT(127.0014445 37.5096033),academy_842,37.5096033
POINT(126.9902826 37.485099),공감영재아카데미학원,126.9902826,POINT(126.9902826 37.485099),academy_843,37.485099
POINT(127.0094136 37.4834499),이엠수학교습소,127.0094136,POINT(127.0094136 37.4834499),academy_844,37.4834499
POINT(126.9896414 37.494933),서초키마학원,126.9896414,POINT(126.9896414 37.494933),academy_845,37.494933
POINT(126.9838364 37.4885218),예손음악교습소,126.9838364,POINT(126.9838364 37.4885218),academy_846,37.4885218
POINT(127.0253957 37.4708599),테스(TES)영어교습소,127.0253957,POINT(127.0253957 37.4708599),academy_847,37.4708599
POINT(127.0034252 37.506106),공자중국어교습소,127.0034252,POINT(127.0034252 37.506106),academy_848,37.506106
POINT(127.0153219 37.4571345),더매쓰(THE MATH)수학전문학원,127.0153219,POINT(127.0153219 37.4571345),academy_849,37.4571345
POINT(126.9840738 37.4910288),탑클래스학원,126.9840738,POINT(126.9840738 37.4910288),academy_851,37.4910288
POINT(127.0155471 37.5209668),한강수학교습소,127.0155471,POINT(127.0155471 37.5209668),academy_852,37.5209668
POINT(127.0252901 37.4981339),극한스피킹학원,127.0252901,POINT(127.0252901 37.4981339),academy_853,37.4981339
POINT(127.020082 37.5098315),두쏭음악교습소,127.020082,POINT(127.020082 37.5098315),academy_854,37.5098315
POINT(127.0113091 37.5000631),해법수학교실반포학원,127.0113091,POINT(127.0113091 37.5000631),academy_855,37.5000631
POINT(127.0286073 37.4934938),강남완전학습관학원,127.0286073,POINT(127.0286073 37.4934938),academy_856,37.4934938
POINT(127.0035592 37.5087922),한우리독서토론논술교습소,127.0035592,POINT(127.0035592 37.5087922),academy_857,37.5087922
POINT(127.046149 37.4719754),엔디에이취(NDH)발성교정아카데미학원,127.046149,POINT(127.046149 37.4719754),academy_858,37.4719754
POINT(126.9858141 37.486097),방배캠퍼스현재어학원,126.9858141,POINT(126.9858141 37.486097),academy_859,37.486097
POINT(127.0011202 37.5059333),진선생구반포관영어학원,127.0011202,POINT(127.0011202 37.5059333),academy_860,37.5059333
POINT(127.0290761 37.4922182),러셀강남독서실,127.0290761,POINT(127.0290761 37.4922182),academy_861,37.4922182
POINT(127.0101216 37.5034862),서초소마2관학원,127.0101216,POINT(127.0101216 37.5034862),academy_862,37.5034862
POINT(127.0029788 37.4826839),서준학원,127.0029788,POINT(127.0029788 37.4826839),academy_863,37.4826839
POINT(126.9830606 37.4906957),수학을삼키다학원,126.9830606,POINT(126.9830606 37.4906957),academy_864,37.4906957
POINT(127.0290761 37.4922182),러셀강남학원,127.0290761,POINT(127.0290761 37.4922182),academy_865,37.4922182
POINT(127.0104885 37.5039668),세계로에듀반포학원,127.0104885,POINT(127.0104885 37.5039668),academy_866,37.5039668
POINT(126.9901596 37.5017944),수학스쿨(SCHOOL)학원,126.9901596,POINT(126.9901596 37.5017944),academy_867,37.5017944
POINT(127.0240373 37.4701279),우암방과후공부방수학교습소,127.0240373,POINT(127.0240373 37.4701279),academy_868,37.4701279
POINT(127.0213742 37.4654114),엘앤케이(LNK)스터디브릭스보습학원,127.0213742,POINT(127.0213742 37.4654114),academy_869,37.4654114
POINT(127.0034252 37.506106),으뜸수학교습소,127.0034252,POINT(127.0034252 37.506106),academy_870,37.506106
POINT(127.006478 37.5070327),919수학학원,127.006478,POINT(127.006478 37.5070327),academy_871,37.5070327
POINT(127.0115707 37.5016692),개념폴리아서초관학원,127.0115707,POINT(127.0115707 37.5016692),academy_872,37.5016692
POINT(127.0008014 37.5043898),수학의상상력학원,127.0008014,POINT(127.0008014 37.5043898),academy_873,37.5043898
POINT(127.0136537 37.4963524),와이국어논술학원,127.0136537,POINT(127.0136537 37.4963524),academy_874,37.4963524
POINT(126.9869203 37.5021451),엘브라운(El.Brown)학원,126.9869203,POINT(126.9869203 37.5021451),academy_875,37.5021451
POINT(127.0140803 37.4965902),새미준영어교습소,127.0140803,POINT(127.0140803 37.4965902),academy_876,37.4965902
POINT(127.0279561 37.4948761),코리아요리학원,127.0279561,POINT(127.0279561 37.4948761),academy_877,37.4948761
POINT(127.0111828 37.4916282),일공이제이유(EJU)학원,127.0111828,POINT(127.0111828 37.4916282),academy_878,37.4916282
POINT(127.0101379 37.5022519),생각하는두꺼비수학3관학원,127.0101379,POINT(127.0101379 37.5022519),academy_879,37.5022519
POINT(126.9869203 37.5021451),구반포진선생어학원,126.9869203,POINT(126.9869203 37.5021451),academy_880,37.5021451
POINT(127.0153219 37.4571345),라라음악학원,127.0153219,POINT(127.0153219 37.4571345),academy_881,37.4571345
POINT(126.9962157 37.4980166),토토미술교습소,126.9962157,POINT(126.9962157 37.4980166),academy_884,37.4980166
POINT(127.0054708 37.4823445),평정수학학원,127.0054708,POINT(127.0054708 37.4823445),academy_885,37.4823445
POINT(127.0146374 37.5161566),해피아트프로젝트미술교습소,127.0146374,POINT(127.0146374 37.5161566),academy_886,37.5161566
POINT(127.0098927 37.5071155),바움아트클래스미술교습소,127.0098927,POINT(127.0098927 37.5071155),academy_887,37.5071155
POINT(127.008056 37.5074515),해법중국어북경대중국어교습소,127.008056,POINT(127.008056 37.5074515),academy_888,37.5074515
POINT(127.0636548 37.4543375),내곡프린스턴수학교습소,127.0636548,POINT(127.0636548 37.4543375),academy_889,37.4543375
POINT(127.0406624 37.4687142),이지에듀원격학원,127.0406624,POINT(127.0406624 37.4687142),academy_890,37.4687142
POINT(127.0055318 37.5067454),하오펑유(HaoPengYou)중국어교습소,127.0055318,POINT(127.0055318 37.5067454),academy_891,37.5067454
POINT(126.9869203 37.5021451),스터디코트수학교습소,126.9869203,POINT(126.9869203 37.5021451),academy_892,37.5021451
POINT(126.999387 37.498512),레보자르아뜰리에교습소,126.999387,POINT(126.999387 37.498512),academy_893,37.498512
POINT(127.0101396 37.5029817),크레버스영재관서초제1지점학원,127.0101396,POINT(127.0101396 37.5029817),academy_894,37.5029817
POINT(126.9897785 37.4931501),페디아플러스방배학원,126.9897785,POINT(126.9897785 37.4931501),academy_895,37.4931501
POINT(127.0144042 37.4960433),키즈스피치스카이화술교습소,127.0144042,POINT(127.0144042 37.4960433),academy_896,37.4960433
POINT(126.997547 37.4821784),천년의미소베이스캠프미술학원,126.997547,POINT(126.997547 37.4821784),academy_897,37.4821784
POINT(126.9834869 37.4734172),알로와경매학원,126.9834869,POINT(126.9834869 37.4734172),academy_898,37.4734172
POINT(127.0034252 37.506106),네이처탐구전문학원,127.0034252,POINT(127.0034252 37.506106),academy_899,37.506106
POINT(126.9921186 37.4856283),조이투리드영어교습소,126.9921186,POINT(126.9921186 37.4856283),academy_900,37.4856283
POINT(127.012505 37.5148773),리드101잠원영어학원,127.012505,POINT(127.012505 37.5148773),academy_901,37.5148773
POINT(126.991494 37.4917141),서초토피아어학원,126.991494,POINT(126.991494 37.4917141),academy_903,37.4917141
POINT(127.0217403 37.5015015),말하는영어교습소,127.0217403,POINT(127.0217403 37.5015015),academy_904,37.5015015
POINT(127.0006421 37.4790059),피바디음악교습소,127.0006421,POINT(127.0006421 37.4790059),academy_905,37.4790059
POINT(126.9869203 37.5021451),허쌤수학교습소,126.9869203,POINT(126.9869203 37.5021451),academy_906,37.5021451
POINT(127.009858 37.5037543),디알(DR)수학교습소,127.009858,POINT(127.009858 37.5037543),academy_907,37.5037543
POINT(127.0141317 37.4961221),디토랩미술교습소,127.0141317,POINT(127.0141317 37.4961221),academy_908,37.4961221
POINT(126.9834848 37.4911048),서울서초내공독서실,126.9834848,POINT(126.9834848 37.4911048),academy_909,37.4911048
POINT(127.0217403 37.5015015),안경쓴고양이미술교습소,127.0217403,POINT(127.0217403 37.5015015),academy_910,37.5015015
POINT(126.9947134 37.5054735),제이뮤직아카데미음악교습소,126.9947134,POINT(126.9947134 37.5054735),academy_911,37.5054735
POINT(126.9997932 37.4994255),에이치이씨(HEC)영어교습소,126.9997932,POINT(126.9997932 37.4994255),academy_912,37.4994255
POINT(127.0395969 37.4786532),칸미디어학원,127.0395969,POINT(127.0395969 37.4786532),academy_913,37.4786532
POINT(127.0177842 37.5134076),톤연기학원,127.0177842,POINT(127.0177842 37.5134076),academy_914,37.5134076
POINT(127.0008014 37.5043898),그레이트에이미술학원,127.0008014,POINT(127.0008014 37.5043898),academy_915,37.5043898
POINT(127.0315247 37.4873726),포커스영화학원,127.0315247,POINT(127.0315247 37.4873726),academy_916,37.4873726
POINT(126.9831342 37.4919398),두드림보습학원,126.9831342,POINT(126.9831342 37.4919398),academy_917,37.4919398
POINT(127.0141834 37.5154139),더피아노교습소,127.0141834,POINT(127.0141834 37.5154139),academy_918,37.5154139
POINT(127.0141834 37.5154139),필영어교습소,127.0141834,POINT(127.0141834 37.5154139),academy_919,37.5154139
POINT(127.0192005 37.5115001),카타르시스연기학원,127.0192005,POINT(127.0192005 37.5115001),academy_920,37.5115001
POINT(127.0217811 37.5027093),서초어반트리독서실,127.0217811,POINT(127.0217811 37.5027093),academy_921,37.5027093
POINT(127.0072892 37.5072738),키(KEY)과학학원,127.0072892,POINT(127.0072892 37.5072738),academy_922,37.5072738
POINT(127.012073 37.5021689),예음바이올린교습소,127.012073,POINT(127.012073 37.5021689),academy_923,37.5021689
POINT(127.006478 37.5070327),빛이룸영어교습소,127.006478,POINT(127.006478 37.5070327),academy_924,37.5070327
POINT(127.0178284 37.5160841),아임프롬보컬학원,127.0178284,POINT(127.0178284 37.5160841),academy_925,37.5160841
POINT(127.0155899 37.4884212),스토리에듀케이션학원,127.0155899,POINT(127.0155899 37.4884212),academy_927,37.4884212
POINT(126.9840738 37.4910288),코듀크리에이티브반포센터학원,126.9840738,POINT(126.9840738 37.4910288),academy_928,37.4910288
POINT(127.0111962 37.5017651),개념폴리아서초2관학원,127.0111962,POINT(127.0111962 37.5017651),academy_929,37.5017651
POINT(127.0277725 37.4950818),코리아제2캠퍼스학원,127.0277725,POINT(127.0277725 37.4950818),academy_930,37.4950818
POINT(126.9915865 37.4915617),발레앤코강남서초학원,126.9915865,POINT(126.9915865 37.4915617),academy_931,37.4915617
POINT(127.0174633 37.4999252),리드인서초원명점독서논술교습소,127.0174633,POINT(127.0174633 37.4999252),academy_932,37.4999252
POINT(127.0156993 37.4947295),플랜에이프리미엄독서실,127.0156993,POINT(127.0156993 37.4947295),academy_933,37.4947295
POINT(127.0075413 37.4831008),에듀코치개별지도서초2학원,127.0075413,POINT(127.0075413 37.4831008),academy_934,37.4831008
POINT(127.0104411 37.5007046),반포파인만중등관학원,127.0104411,POINT(127.0104411 37.5007046),academy_935,37.5007046
POINT(126.9982803 37.4882307),아이원이앤엠학원,126.9982803,POINT(126.9982803 37.4882307),academy_936,37.4882307
POINT(127.0143407 37.5197943),선우수학교습소,127.0143407,POINT(127.0143407 37.5197943),academy_937,37.5197943
POINT(127.0259319 37.4922553),코치클래스영어교습소,127.0259319,POINT(127.0259319 37.4922553),academy_938,37.4922553
POINT(127.0075327 37.4828935),엠원학원,127.0075327,POINT(127.0075327 37.4828935),academy_939,37.4828935
POINT(127.010651 37.5010848),북스토리학원,127.010651,POINT(127.010651 37.5010848),academy_940,37.5010848
POINT(127.0190881 37.498479),뮤엠서초원명점영어교습소,127.0190881,POINT(127.0190881 37.498479),academy_941,37.498479
POINT(126.9837401 37.4822767),레히연기로드학원,126.9837401,POINT(126.9837401 37.4822767),academy_942,37.4822767
POINT(127.0010156 37.5061397),반포파인만고등2관학원,127.0010156,POINT(127.0010156 37.5061397),academy_943,37.5061397
POINT(127.018483 37.5144676),레슨포케이아트연극영화학원,127.018483,POINT(127.018483 37.5144676),academy_944,37.5144676
POINT(127.0103877 37.5021819),뮤직플러싱(Music+ing)음악학원,127.0103877,POINT(127.0103877 37.5021819),academy_945,37.5021819
POINT(127.0174633 37.4999252),이케이티(EKT)이론영어교습소,127.0174633,POINT(127.0174633 37.4999252),academy_946,37.4999252
POINT(126.9880473 37.4957393),뮤엠영어서래미쉘영어교습소,126.9880473,POINT(126.9880473 37.4957393),academy_947,37.4957393
POINT(127.0103877 37.5021819),진리수학영어학원,127.0103877,POINT(127.0103877 37.5021819),academy_948,37.5021819
POINT(127.0048897 37.5065508),리디아(Lydia)영어교습소,127.0048897,POINT(127.0048897 37.5065508),academy_949,37.5065508
POINT(127.0104456 37.5003622),링구아엠영어전문학원,127.0104456,POINT(127.0104456 37.5003622),academy_950,37.5003622
POINT(127.0103272 37.5024787),이음수학교습소,127.0103272,POINT(127.0103272 37.5024787),academy_951,37.5024787
POINT(127.0162246 37.4563941),비끄아트서초우면점미술교습소,127.0162246,POINT(127.0162246 37.4563941),academy_952,37.4563941
POINT(127.0112563 37.5023513),크레버스씨큐브코딩서초제1지점학원,127.0112563,POINT(127.0112563 37.5023513),academy_953,37.5023513
POINT(127.010651 37.5010848),소미아트서초센터학원,127.010651,POINT(127.010651 37.5010848),academy_954,37.5010848
POINT(126.9982752 37.4886091),이김이호석국어교습소,126.9982752,POINT(126.9982752 37.4886091),academy_955,37.4886091
POINT(126.9982752 37.4886091),이김김소연영어교습소,126.9982752,POINT(126.9982752 37.4886091),academy_956,37.4886091
POINT(126.9947134 37.5054735),아르코음악교습소,126.9947134,POINT(126.9947134 37.5054735),academy_957,37.5054735
POINT(127.0391725 37.472063),코프디자인플로리스트학원,127.0391725,POINT(127.0391725 37.472063),academy_958,37.472063
POINT(127.0120964 37.5029711),연세리체음악교습소,127.0120964,POINT(127.0120964 37.5029711),academy_959,37.5029711
POINT(127.0184822 37.4972486),카머(kammer)기타교습소,127.0184822,POINT(127.0184822 37.4972486),academy_960,37.4972486
POINT(127.0139482 37.5066358),연세루첸음악교습소,127.0139482,POINT(127.0139482 37.5066358),academy_961,37.5066358
POINT(126.9950778 37.4867168),릴드당스발레학원,126.9950778,POINT(126.9950778 37.4867168),academy_962,37.4867168
POINT(127.0096267 37.5007158),생각하는황소서초2관학원,127.0096267,POINT(127.0096267 37.5007158),academy_963,37.5007158
POINT(127.008056 37.5074515),광태수학학원,127.008056,POINT(127.008056 37.5074515),academy_964,37.5074515
POINT(127.0011202 37.5059333),에스(S)학원,127.0011202,POINT(127.0011202 37.5059333),academy_965,37.5059333
POINT(127.008056 37.5074515),생각하는두꺼비수학2관학원,127.008056,POINT(127.008056 37.5074515),academy_966,37.5074515
