uuid,name,lon,lat
academy_0,중앙보습학원,126.9906421,37.4919951
academy_1,동신보습학원,127.0087483,37.4884541
academy_2,엘브라운의대관학원,127.0021861,37.5057261
academy_3,광지독서실,126.9874334,37.5026721
academy_4,예신음악학원,127.0009618,37.4770714
academy_5,잔디음악학원,126.9962507,37.486105
academy_6,스터디하우스잠원독서실,127.0115158,37.5144095
academy_7,피앤피아카데미(P&P Academy)학원,126.9845826,37.4910332
academy_8,하수꽃꽂이학원,127.0478397,37.4741606
academy_9,국제컴퓨터학원,127.0241085,37.5020257
academy_10,잠원수도컴퓨터학원,127.0115158,37.5144095
academy_11,가나어학학원,127.0055318,37.5067454
academy_12,서초그린섬미술학원,126.9972242,37.4826442
academy_13,리즈음악학원,127.0174633,37.4999252
academy_14,서원음악학원,127.0087853,37.5010511
academy_15,아이캔보습학원,126.9874554,37.4951846
academy_16,수이지수학전문학원,127.0154635,37.5178575
academy_17,신동아학원,127.0014497,37.4811843
academy_18,예일보습학원,127.0198985,37.490124
academy_19,박컴학원,127.009821,37.4894273
academy_20,준암보습학원,126.993386,37.488928
academy_21,제일진성보습학원,127.0447812,37.4728564
academy_22,란음악학원,126.9975306,37.4977845
academy_23,박정어학원,127.0154692,37.4924479
academy_24,이든음악학원,127.0322158,37.4749978
academy_25,시온음악학원,127.0071774,37.4824039
academy_26,녹지미술학원,126.9989078,37.4801806
academy_27,탑클래스독서실,127.0143407,37.5197943
academy_28,한국회계학원,127.0142486,37.4923927
academy_29,서울애완동물관리학원,127.0381159,37.4848224
academy_30,행원독서실,126.9897876,37.4756788
academy_31,양재왕수학보습학원,127.0253957,37.4708599
academy_32,연세아카데미학원,127.0250988,37.4710827
academy_33,방배학원,126.9996005,37.4799612
academy_34,리드유(Leadu)영어학원,127.0112172,37.5010265
academy_35,피에스에이서초어학학원,127.0263437,37.4875372
academy_36,서초제일보습학원,127.0218698,37.4846349
academy_37,헨리영어아이(i)학원,127.0048897,37.5065508
academy_38,개념폴리아방배관학원,126.9866613,37.4861583
academy_39,이소키즈클럽어학원,126.9929699,37.4938081
academy_40,경인학원,127.0306961,37.4753638
academy_41,서초뉴이화음악학원,127.0253957,37.4708599
academy_43,경희무용학원,127.0130338,37.518531
academy_44,103미술학원,127.012073,37.5021689
academy_45,셈프레뮤직아트센터서초학원,127.0219742,37.4844376
academy_46,강남용문보습학원,127.023732,37.4866417
academy_47,피엠지보습학원,127.012073,37.5021689
academy_48,반포한신보습학원,126.9947134,37.5054735
academy_49,에스오티어학원,127.0109714,37.4999431
academy_50,에스엠에스(SMS)서울실용음악학원,127.0229255,37.5042866
academy_51,영재과학보습학원,127.020806,37.5037644
academy_52,파고다원강남학원,127.0262296,37.4998086
academy_53,멘토(Mentor)독서실,126.9889501,37.4933593
academy_54,윤영숙수학전문학원,126.9831156,37.4933092
academy_55,현재어학원,127.010651,37.5010848
academy_56,메디치보습학원,127.0100772,37.5162716
academy_57,퍼스널학원,127.012073,37.5021689
academy_59,폴리아수학학원,126.9889501,37.4933593
academy_60,오예스영어학원,127.0007575,37.4788267
academy_61,새롬공인중개사학원,127.0282432,37.494536
academy_62,진선생어학원,127.0104593,37.5018941
academy_63,서초무용학원,127.0259319,37.4922553
academy_64,샘밭미술학원,126.996292,37.4847087
academy_65,참좋은음악학원,127.0217403,37.5015015
academy_66,으뜸창조미술학원,127.0021861,37.5057261
academy_67,하선정요리학원,127.0021176,37.5049236
academy_68,잠원씨앤에이논술보습학원,127.008056,37.5074515
academy_69,코트라아카데미경영학원,127.0447446,37.465071
academy_70,장수경어학원,127.0285595,37.4928176
academy_71,선재보습학원,127.0048897,37.5065508
academy_72,브릭앤멘사영재학원,126.9864195,37.4981942
academy_73,모든이피아노교습소,127.0072402,37.4870539
academy_74,중앙법률사무교육학원,127.0091504,37.487971
academy_75,코몽드피부미용학원,127.0178219,37.5157146
academy_76,유진벨어학학원,127.0185822,37.4939335
academy_77,파워플러스영어학원,127.0111962,37.5017651
academy_78,반포탐구와은유학원,127.0102777,37.5019467
academy_79,포스트공연영상학원,127.0396562,37.4846187
academy_80,하윤미술교습소,126.9910431,37.4747975
academy_81,아이파경영학원,127.0190938,37.4945865
academy_82,유로센터독어교습소,127.0189044,37.5168409
academy_83,어셔어학원,127.0036799,37.5082166
academy_84,더블유에스에이피디피와인아카데미학원,127.0177225,37.5103525
academy_85,문클라리넷교습소,127.0048897,37.5065508
academy_86,더오름수학학원,127.0104685,37.5012004
academy_87,그림재미미술교습소,127.0190881,37.498479
academy_88,이찬이대학편입학원,127.0168439,37.4936848
academy_89,박문각강남고시학원,127.024742,37.4985349
academy_90,한우리서초독서논술학원,127.0092948,37.5035783
academy_91,오승은과학전문과학교습소,126.9845826,37.4910332
academy_92,시그마수학학원,126.9915887,37.4930845
academy_93,최고수학학원,126.9871492,37.5011109
academy_94,잼앤클래식음악교습소,127.0143407,37.5197943
academy_95,피아노포르테피아노교습소,127.0000133,37.5049688
academy_96,서초이화바이올린교습소,127.0174633,37.4999252
academy_97,아이비수학교습소,127.0174633,37.4999252
academy_98,반포향상피아노교습소,126.9947134,37.5054735
academy_99,이엔아이피아노교습소,127.0021861,37.5057261
academy_100,팝스터디학원,127.0035592,37.5087922
academy_101,파머스영어교습소,126.9850255,37.4791972
academy_102,클래식피아노교습소,127.0217403,37.5015015
academy_103,소르본보습학원,127.0095874,37.4985529
academy_104,와이즈만영재교육방배본원학원,126.9949443,37.4738937
academy_105,거성영어학원,127.0248042,37.4911468
academy_106,째즈탑아카데미실용음악학원,127.0277116,37.4910536
academy_107,반포세정3관학원,127.0021861,37.5057261
academy_108,아벨수학영어전문학원,126.9887935,37.4781302
academy_109,잠원바이올린교습소,127.006478,37.5070327
academy_110,헨리영어전문학원,127.0048897,37.5065508
academy_111,네오과학학원,127.0046736,37.4819233
academy_112,기파랑문해원서초학원,127.009858,37.5037543
academy_113,해바라기미술교습소,127.0127556,37.5130323
academy_114,은빛보습학원,127.0455977,37.4717637
academy_115,웅지학당시즌투학원,126.9892846,37.4911996
academy_116,지이에스성인고시학원,127.0210749,37.4840337
academy_117,채림미술교습소,127.0259319,37.4922553
academy_118,케이디에스부동산학원,127.0160676,37.492516
academy_119,이엠피뮤직슐레음악학원,127.0103877,37.5021819
academy_120,서초탑클래스학원,127.0042978,37.4821274
academy_121,에스비에스(SBS)아카데미컴퓨터아트학원,127.0265011,37.4980628
academy_122,석사음악원피아노교습소,127.0306961,37.4753638
academy_123,리딩키즈리딩클럽영어전문교습소,127.0311952,37.4743587
academy_124,제이앤피영어전문학원,127.0143407,37.5197943
academy_125,진체크패스영어보습학원,126.9918986,37.4910598
academy_126,엘리트리에스비어학원,127.0132085,37.497529
academy_127,아트앤빛미술교습소,127.0007679,37.4992716
academy_128,패스트레인정보통신학원,127.0357793,37.484506
academy_129,요미요미미술학원,127.0104441,37.5004794
academy_130,프라임음악교습소,126.9995807,37.4780508
academy_131,아카데미라운지서초독서실,127.0262233,37.4872299
academy_132,애플트리서초어학학원,127.0212667,37.4901263
academy_133,서초한나피아노교습소,127.0194018,37.4961119
academy_134,서이플룻교습소,127.0259319,37.4922553
academy_135,방배삼호해법수학교습소,126.9877635,37.496656
academy_136,손광균학원,127.0101926,37.5023965
academy_137,반포파인만학원,127.0104411,37.5007046
academy_138,스파르탄보습학원,127.0104765,37.5023088
academy_139,EMI영어교습소,126.993188,37.4893588
academy_140,세라아트도예학원,127.0001532,37.480903
academy_141,사랑이넘치는피아노학원,126.9861984,37.4869473
academy_142,아름다운음악교습소,126.9841985,37.485164
academy_143,현재스토리학원,127.0158903,37.4922442
academy_144,대치에프엠(FM)수학학원,127.0077216,37.4831474
academy_145,황후연국제교육학원,127.0465753,37.4731232
academy_146,수목미술교습소,126.9877635,37.496656
academy_147,서초실용음악학원,127.0137474,37.4961099
academy_148,생각하는그린나무미술교습소,126.9889501,37.4933593
academy_149,대림이엔아이피아노교습소,127.0100772,37.5162716
academy_150,비티비(BTB)아카데미학원,127.0075413,37.4831008
academy_151,조민정피아노교습소,127.0014445,37.5096033
academy_152,반포아너스영어학원,126.9832776,37.4963742
academy_153,다플교육센터통역학원,127.0100655,37.4888887
academy_154,김&김학원,126.99508,37.4848696
academy_155,엠에이에스수학교습소,127.012073,37.5021689
academy_156,이수형수학학원,127.0090872,37.483339
academy_157,비더블유에스강남와인학원,127.0369441,37.4624667
academy_158,문현선플로리스트학원,127.0321412,37.48517
academy_159,멜라뷰티학원,127.0425653,37.4684233
academy_160,서초수학교습소,127.0207994,37.4904108
academy_161,씨존만화학원,127.0317788,37.4869602
academy_162,빛과공간미술교습소,127.0014445,37.5096033
academy_163,최상위하다학원,127.0259319,37.4922553
academy_164,해커스어학원,127.0242235,37.4984044
academy_165,비트교육센터별관학원,127.02762,37.49463
academy_166,수연미술교습소,126.9880473,37.4957393
academy_167,이스프릿어학학원,127.0167676,37.51503
academy_168,프렌즈음악학원,126.9981571,37.4991414
academy_169,글로벌수학전문학원,127.042301,37.4731877
academy_170,서초에이프릴어학원,127.0111962,37.5017651
academy_171,엘리제음악교습소,127.0249371,37.4904901
academy_172,맹자희교습소,123.7417741,32.5220203
academy_173,황미숙교습소,127.0014497,37.4811843
academy_174,나순천교습소,123.7417741,32.5220203
academy_175,박진우교습소,126.9968778,37.5068525
academy_176,강정옥교습소,126.9968778,37.5068525
academy_177,전희정교습소,127.0115847,37.51004
academy_178,임은순교습소,127.0115847,37.51004
academy_179,박스란교습소,127.0115847,37.51004
academy_180,김경자교습소,127.0115847,37.51004
academy_181,강정자피아노,126.9937168,37.4836506
academy_182,한국속성한문교습소,127.0143407,37.5197943
academy_183,아이캔스피치&리더십센터교습소,127.0034252,37.506106
academy_184,덕암한문교습소,127.0322158,37.4749978
academy_185,방배발레아카데미무용교습소,127.0065231,37.4780193
academy_186,피아노친구피아노교습소,126.9856989,37.4787254
academy_187,두란노서예교습소,126.9861984,37.4869473
academy_188,명진피아노,126.9961583,37.4862484
academy_189,강남알프레드피아노교습소,127.0194018,37.4961119
academy_190,방배피아노,123.7417741,32.5220203
academy_191,클라비어피아노교습소,126.9838009,37.478619
academy_192,연세영어교습소,127.0259319,37.4922553
academy_193,비하우스바이올린교습,126.9869203,37.5021451
academy_194,비하우스첼로교습소,126.9869203,37.5021451
academy_195,새세잔미술교습소,127.0445078,37.4694662
academy_196,설악피아노교습소,127.0154635,37.5178575
academy_197,아마빌레플러스음악교습소,126.9831773,37.4895974
academy_198,신나는이화미술교습소,127.0417021,37.4793641
academy_199,신영피아노교습소,126.9863721,37.4832905
academy_200,피아노쥬이르음악교습소,127.0227407,37.5019783
academy_201,바로크음악교습소,127.0440268,37.473499
academy_202,하이러브음악교습소,126.9854482,37.492248
academy_203,피아노스토리음악교습소,127.0100772,37.5162716
academy_204,우수피아노교습소,127.0091328,37.4807444
academy_205,우암바이올린교습소,127.0247163,37.4709444
academy_206,조이풀음악교습소,126.9851723,37.4792074
academy_208,이화음악교습소,127.0174633,37.4999252
academy_209,비바체피아노교습소,127.0007679,37.4992716
academy_210,전민숙피아노,127.0000133,37.5049688
academy_211,창봉서예교습소,127.0250988,37.4710827
academy_212,글고운서예교습소,127.0090872,37.483339
academy_213,파가니니바이올린교습소,127.0143407,37.5197943
academy_214,푸른미술과외교습소,127.0249371,37.4904901
academy_215,하늘피아노교습소,127.0263178,37.4869243
academy_216,한겨례서예,127.0175436,37.5162349
academy_217,국악누리교습소,127.012073,37.5021689
academy_218,향촌서예교습소,126.9880473,37.4957393
academy_219,뮤직앤스토리음악교습소,126.992457,37.4823244
academy_220,반디과학전문학원,126.9915887,37.4930845
academy_221,도레미아카데미음악교습소,127.0277116,37.4910536
academy_222,도레미음악교습소,127.0277116,37.4910536
academy_223,멘토2관학원,126.9871492,37.5011109
academy_224,해커스어학원강남제1별관학원,127.024742,37.4985349
academy_225,방배지앤비영어전문학원,126.987608,37.4780119
academy_226,엘리트서초어학원,127.0102102,37.5002071
academy_227,세명학원,126.9869203,37.5021451
academy_228,그림마을미술교습소,127.0137011,37.5004886
academy_229,방배에이프릴어학원,126.9948913,37.4913556
academy_230,(주)방배청담어학원,126.9948913,37.4913556
academy_231,서래나무스즈키음악교습소,126.9877635,37.496656
academy_232,웰라잉글리쉬영어교습소,126.9995807,37.4780508
academy_233,반포친우음악교습소,127.0139482,37.5066358
academy_234,근육학아카데미학원,127.0307723,37.4869699
academy_235,이지스아카데미학원,126.9982734,37.4811214
academy_236,한자365한문교습소,127.0000133,37.5049688
academy_237,양재우사회교습소,127.0034252,37.506106
academy_238,호스코아카데미학원,127.0116421,37.4876674
academy_239,신애음악학원,127.0265924,37.4718519
academy_240,예음피아노교습소,126.9870974,37.4865225
academy_241,와룡국어교습소,127.0055318,37.5067454
academy_242,본스타트레이닝센터학원,127.0171001,37.5155464
academy_243,하이츠방배캠퍼스학원,126.991494,37.4917141
academy_244,해커스어학원강남제6별관학원,127.0243361,37.5010544
academy_245,심앤김국수시대학원,126.9972242,37.4826442
academy_246,청어람국어교습소,127.0259319,37.4922553
academy_247,베블렌수학학원,126.9828163,37.4870263
academy_248,한국공급관리교육학원,127.0126509,37.4840446
academy_249,동암한문교습소,127.0259319,37.4922553
academy_250,시그마2수학학원,126.9928708,37.4877162
academy_252,지니클리닉영어교습소,127.0248042,37.4911468
academy_253,비아이에스어학원,127.0113091,37.5000631
academy_254,잠원예랑미술학원,127.0035592,37.5087922
academy_255,시매쓰학원,127.0075413,37.4831008
academy_256,반포연세피아노교습소,126.9901309,37.5039297
academy_257,역사사고력논술교습소,126.9888745,37.4947733
academy_258,서초소마학원,127.0101914,37.5033426
academy_259,이룸수학교습소,127.0072892,37.5072738
academy_260,클라라슈만음악학원,127.044458,37.4733764
academy_261,가인학원,127.0109178,37.4997174
academy_263,씨지앤아이(CGNI)게임그래픽학원,127.0186909,37.4942678
academy_264,비와이피(BYP)보습학원,126.9835007,37.4907625
academy_265,아름재즈피아노교습소,127.0121453,37.4898162
academy_266,플래뮤서초미술학원,127.0100401,37.5036657
academy_267,지브이씨에스랭귀지프렙어학원,126.9911218,37.4975317
academy_268,엠케이영어교습소,127.0253957,37.4708599
academy_269,게이트서초어학학원,127.0212667,37.4901263
academy_270,토브국어교습소,127.0285717,37.4866365
academy_271,김수희과학보습학원,126.9983523,37.4997737
academy_272,강신백국어보습학원,126.9832776,37.4963742
academy_273,프리셀영어학원,127.0104441,37.5004794
academy_274,아이파재경교육학원,127.0198315,37.4943854
academy_275,메이저수학학원,127.0097136,37.5035548
academy_276,피아이서초어학원,127.0113091,37.5000631
academy_278,탐구와은유학원,127.0103877,37.5021819
academy_279,뜰아트미술교습소,127.024887,37.4917331
academy_280,이튼교육강남독학재수학원,127.028693,37.4929899
academy_281,반포해냄학원,127.0021861,37.5057261
academy_282,앙상블음악교습소,126.9871929,37.4769361
academy_283,이루트학원,127.0448006,37.4695497
academy_284,클라라피아노스튜디오교습소,127.0014445,37.5096033
academy_285,고트수학교습소,127.012073,37.5021689
academy_286,킹스타운서초어학원,126.9921857,37.4932608
academy_287,사비나아트미술교습소,127.0087853,37.5010511
academy_288,해커스어학원강남제3별관학원,127.0257595,37.4985613
academy_289,아트피디어미술교습소,127.0174633,37.4999252
academy_290,방배해법영어교습소,126.9870974,37.4865225
academy_291,알앤디잉글리쉬(R&D English)학원,127.0102248,37.5008109
academy_292,아세아실용음악학원,126.997063,37.4828591
academy_293,노정현수학반포본원학원,127.0105381,37.5027778
academy_294,제이플로리스트학원,126.9963681,37.4840877
academy_295,튜티음악교습소,127.0130338,37.518531
academy_296,와일본어교육원일본어교습소,127.0034252,37.506106
academy_297,리드101잠원반원학원,127.0035592,37.5087922
academy_298,허은주국어교습소,127.0190881,37.498479
academy_299,엠플러스수학학원,126.9858162,37.4876108
academy_300,서초1관정상어학원,127.0116466,37.5010571
academy_301,서초심슨학원,127.0174633,37.4999252
academy_302,서순영국어논술학원,126.9823825,37.4831661
academy_303,블루북스리딩학원,127.0098927,37.5071155
academy_304,노리터(Noriter)잉글리시영어교습소,126.9882964,37.4932005
academy_306,성음피아노교습소,126.996184,37.4851764
academy_307,열린생각서초수학교습소,127.0098364,37.48312
academy_308,세린(S.E.C)어학원,126.99166,37.4903009
academy_309,에이치씨엠에스학원,126.9854783,37.479156
academy_310,아레네스(R&S)수학전문학원,126.9940788,37.4886996
academy_311,에프엑스(f(x))수학학원,127.0072892,37.5072738
academy_312,선바이올린교습소,127.0259319,37.4922553
academy_313,예랑미술학원,127.0235582,37.4713223
academy_314,대한논리방배학원,126.9956206,37.4841804
academy_315,멘토수학전문교습소,126.9894806,37.4925979
academy_316,지승학원,126.9830606,37.4906957
academy_317,에이플영어학원,127.0454002,37.4721856
academy_318,튼튼영어서초3동마스터클럽영어교습소,127.0087712,37.4875713
academy_319,솔기타교습소,126.9954312,37.4831246
academy_320,잉글리쉬부띠끄어학원,127.0102675,37.5010005
academy_321,문사탐학원,127.0150671,37.4963732
academy_322,이지솔루션학원,127.0052559,37.4823517
academy_323,선과색미술교습소,127.0000656,37.4772981
academy_324,아이엘음악학원,126.9894204,37.4953816
academy_325,예향피아노교습소,127.0393573,37.4823546
academy_326,수아체학원,126.9965901,37.4835579
academy_327,케이디(KD)영어전문학원,127.0083647,37.4832519
academy_328,펜타스과학전문학원,127.0021861,37.5057261
academy_329,뮤직스트리트음악교습소,126.9851703,37.4801896
academy_330,뮤니크피아노교습소,127.0104456,37.5003622
academy_331,이이엘씨(eelc)킨더어학원,127.009672,37.5032751
academy_332,피아노사랑음악교습소,127.0174633,37.4999252
academy_333,선생님따라잡기학원,127.0174633,37.4999252
academy_334,훈수학교습소,126.9869203,37.5021451
academy_335,제네시스수학학원,126.9921868,37.5041184
academy_336,서초연세피아노교습소,127.0174633,37.4999252
academy_337,서초삼호해법수학교습소,127.020749,37.501196
academy_338,티아이연기학원,127.0186302,37.5161808
academy_339,천년의미소미술학원,126.9978229,37.4818384
academy_340,튼튼영어마스터클럽이상수학학원,127.0217403,37.5015015
academy_341,비너세움아카데미학원,127.0333061,37.4851435
academy_342,존앤섹션아카데미코리아학원,127.0167676,37.51503
academy_343,반포비전매쓰학원,127.0072892,37.5072738
academy_344,이탑수학교습소,127.0115158,37.5144095
academy_345,빅토리아잉글리쉬영어교습소,126.999775,37.4795933
academy_346,이에스엘(E.S.L)영어학원,127.026533,37.4877641
academy_347,권박사학원,127.0011202,37.5059333
academy_348,김쌤최강영어교습소,126.9834198,37.491726
academy_349,아렌디독서논술교습소,127.0259319,37.4922553
academy_350,전원주니어미술학원,127.0008014,37.5043898
academy_351,알타이탈리아어학원,127.0172563,37.4932828
academy_352,스카이엠(SKYM)수학학원,127.0440268,37.473499
academy_353,서연고학원,127.0041177,37.4829188
academy_354,가람하지혜언어전문학원,126.9949492,37.4861931
academy_355,사파사진학원,127.0149656,37.4920473
academy_356,엘림영어교습소,127.0115158,37.5144095
academy_357,잼실용음악학원,126.9821765,37.4750098
academy_358,맨투스명성학원,127.0174633,37.4999252
academy_359,한국발레하우스무용학원,126.993106,37.4803025
academy_360,놀이공작실미술교습소,127.0276521,37.4886653
academy_361,미술로생각하기학원,127.0252999,37.49216
academy_362,눈높이러닝센터방배제1보습학원,126.9949526,37.4850938
academy_363,이지엠학원,127.0474431,37.4724454
academy_364,엔조이씨지(Enjoy CG)학원,127.0139417,37.4890743
academy_365,생각하는힘수학교습소,127.0174633,37.4999252
academy_366,루이독서논술교습소,127.0464189,37.4720857
academy_367,능률주니어랩학원,127.0441187,37.4698325
academy_368,이강토혁신수학교습소,127.0000656,37.4772981
academy_369,한올국어논술학원,126.9831702,37.4942918
academy_370,미소꽃예술학원,127.0562945,37.4473228
academy_371,토토빌놀이학원,127.0102102,37.5002071
academy_372,뮤직필리아음악학원,126.9943195,37.4850884
academy_373,수해법수학교습소,127.0141834,37.5154139
academy_374,윈첼영어교습소,127.0236865,37.4970845
academy_375,케이원건축학원,127.0398975,37.4843233
academy_376,뮤직시티실용음악학원,126.9830484,37.4915966
academy_377,정수학교습소,127.029503,37.4863198
academy_378,엠지수학교습소,127.0190881,37.498479
academy_379,쎄컨투넌영어교습소,127.0095874,37.4985529
academy_380,한국전통주교육학원,126.9994362,37.4812574
academy_381,(주)누리마루학원,127.0174565,37.4935367
academy_382,양재어썸기타학원,127.030523,37.4852649
academy_383,시대인재반포센터수학스쿨별관학원,127.0055318,37.5067454
academy_384,브리꼴라주미술교습소,126.9894806,37.4925979
academy_385,홍소랑영어교습소,127.0034252,37.506106
academy_386,한국예술뷰티아카데미학원,127.0214968,37.5097621
academy_387,반포새움학원,127.0055318,37.5067454
academy_388,윤선생영어숲반포학원,127.0140655,37.4951394
academy_389,애너하임영어교습소,126.9894204,37.4953816
academy_390,엔알부동산아카데미학원,127.0128276,37.4946785
academy_391,비씨컬리지잇서초어학원,127.0160253,37.4819463
academy_392,씨엠에스서초제2본원학원,126.983763,37.4972794
academy_393,피아이에프(PIF)서초관영어학원,127.008196,37.4831874
academy_394,위즈무용학원,126.9962238,37.4830412
academy_395,에이스요리학원,127.0260121,37.500014
academy_396,알파수학교습소,126.984064,37.479225
academy_397,미키어학원,127.0168364,37.4933964
academy_398,페디아플러스서초학원,127.0120964,37.5029711
academy_399,바른입시가인학원,127.0109178,37.4997174
academy_400,서울리체피아노교습소,127.0120964,37.5029711
academy_401,정앤정잉글리쉬클럽영어교습소,127.0214472,37.4936329
academy_402,이해법양재우성점수학교습소,127.0320719,37.4747623
academy_403,제이비잉글리쉬영어교습소,127.0101908,37.5025316
academy_404,아이비(IVY)독서실,127.0239744,37.4984294
academy_405,반포지니엠국어학원,127.0011202,37.5059333
academy_406,경사모경매학원,127.012825,37.4880017
academy_407,실버베리토탈악세서리학원,127.0202372,37.5100761
academy_408,이주미영어교습소,127.0276521,37.4886653
academy_409,기타빌리지기타교습소,126.9877635,37.496656
academy_410,유디간호학원,127.0416584,37.4801296
academy_411,로고스영수전문학원,126.9887935,37.4781302
academy_412,에스비에스(SBS)방송아카데미문화예술원 서초캠퍼스학원,126.9885892,37.4865803
academy_413,모던케이실용음악학원,126.9821608,37.4786679
academy_414,와이제이클라식(YJKlassik)피아노교습소,127.0000656,37.4772981
academy_415,아트앤디자인미술교습소,127.0500995,37.4715837
academy_416,리얼수학학원,127.0112172,37.5010265
academy_417,오드실용음악아카데미학원,126.9855618,37.4855181
academy_418,노노스창업교육학원,127.0384429,37.480482
academy_419,아트피아연기학원,126.9822277,37.4804075
academy_420,빛미술교습소,126.9956953,37.5030941
academy_421,아트포마인드미술교습소,127.0259319,37.4922553
academy_422,아트슈에뜨화실(artchouette)미술교습소,126.9965569,37.4860355
academy_423,서초잠원이(e)해법수학교습소,127.0014445,37.5096033
academy_424,투탑과학수학전문학원,127.0041915,37.4824689
academy_425,박상준영어교습소,126.9991399,37.4797321
academy_426,뮤즈음악학원,126.9880473,37.4957393
academy_427,수아체2관학원,127.0042389,37.4823071
academy_428,천지수학교습소,127.0120964,37.5029711
academy_429,서초덕스어학원,127.011213,37.5004858
academy_430,첼로이야기음악교습소,127.0014445,37.5096033
academy_431,코렉트영어학원,127.0098927,37.5071155
academy_432,리드101영어학원,126.9956953,37.5030941
academy_433,하모니음악학원,126.9865979,37.4942041
academy_434,드림보컬실용음악학원,127.0260121,37.500014
academy_435,우지은더블유(W)스피치학원,127.0267067,37.4987763
academy_436,참수학교습소,127.0259319,37.4922553
academy_437,엘에스에이에듀어학원,127.0101396,37.5029817
academy_438,배쓰그만창의미술학원,127.0111962,37.5017651
academy_439,샵(#)음악교습소,126.9877635,37.496656
academy_440,빅토리입시LAB진학상담지도학원,126.9864195,37.4981942
academy_441,조엘피아노음악학원,126.9854378,37.4938518
academy_442,최상위해법영어수학의달인학원,127.0329323,37.4746702
academy_443,논변과소통논술교습소,127.0150422,37.4931021
academy_444,오라클자바교육학원,126.9822555,37.4808583
academy_445,서래에꼴드뮤직학원,126.9979501,37.4977069
academy_446,수학에미친사람들반포관학원,127.0113838,37.5021181
academy_447,서율학원,127.011213,37.5004858
academy_448,더베스트영어교습소,127.0440268,37.473499
academy_449,조은수학학원,127.0146492,37.5152647
academy_450,자라나는미술교습소,126.987741,37.4865911
academy_451,연세자이음악교습소,127.0098927,37.5071155
academy_452,이화성악교습소,127.0034252,37.506106
academy_453,플랜팅아트(planting Art)학원,127.0138644,37.4966695
academy_454,웅진씽크빅학습센터방배학원,126.990073,37.4939546
academy_455,에이치엠에이(HMA)수학전문학원,127.0091311,37.5133984
academy_456,디엑스수학시즌투학원,126.9869203,37.5021451
academy_457,임현미술교습소,127.0253957,37.4708599
academy_458,그룹티아이연기학원,127.0186302,37.5161808
academy_459,바니아트미술교습소,127.0320719,37.4747623
academy_460,샤크에듀학원,127.0072892,37.5072738
academy_461,국어신국어교습소,127.0140371,37.4964367
academy_462,멘토수학학원,126.991401,37.4843337
academy_463,(사)공동체사회포럼러닝컴학원,127.0194991,37.489535
academy_464,리만영재수학교습소,127.0259319,37.4922553
academy_465,네오스터디학원,127.008056,37.5074515
academy_466,서초이엠영어교습소,126.9892362,37.4956234
academy_467,마음그림미술교습소,127.0311952,37.4743587
academy_468,제이에이치에스(JHS)영재교육학원,126.989495,37.4948867
academy_469,해커스어학원강남제2별관학원,127.025563,37.498893
academy_470,생각의힘수학학원,126.9849788,37.4910005
academy_471,서초이화성악교습소,127.0190881,37.498479
academy_472,오영주프랑스발레바오솔학원,127.0433184,37.4802963
academy_473,바른영어교습소,127.0115643,37.5012907
academy_474,윤선생우리집앞영어교실서래영어교습소,126.9874554,37.4951846
academy_475,클랩어학원,127.0159887,37.4881903
academy_476,루키업스마트해법학원,127.0216186,37.4856871
academy_477,이룸(e)학원,126.9871492,37.5011109
academy_478,삼성영어방배직영학원,126.9893334,37.4951286
academy_479,한국광속독교습소,126.9946115,37.4801712
academy_480,자이키즈창작미술교습소,127.0098927,37.5071155
academy_481,크레용미술교습소,126.9845668,37.4788328
academy_482,인투(in2)학원,127.0144997,37.4948006
academy_483,유스발레컨서바토리학원,127.0126956,37.4858021
academy_484,토커스학원,126.9889629,37.4865384
academy_485,해신수학교습소,127.0072892,37.5072738
academy_486,민석사영어교습소,127.0259319,37.4922553
academy_487,더블유매쓰(W-math)수학교습소,127.0259319,37.4922553
academy_488,지메스학원,127.0398792,37.4716092
academy_489,삼성영어방배제2직영학원,126.9963195,37.4843395
academy_490,이메스터어학원,127.0057821,37.4827436
academy_491,메가스터디원격학원,127.0191596,37.4860992
academy_492,엠베스트원격학원,127.0191596,37.4860992
academy_493,강남부동산아카데미학원,127.0131141,37.4943926
academy_494,정성배국어교습소,127.0034252,37.506106
academy_495,달에서온토끼학원,127.0139811,37.4903721
academy_497,피피에스(PPS)수학교습소,127.0021861,37.5057261
academy_498,에듀플렉스에듀코치개별지도서초학원,127.0104685,37.5012004
academy_499,유카리일본어교습소,126.984064,37.479225
academy_500,서초커피엠비에이아카데미학원,127.0089157,37.4911857
academy_501,은성영어교습소,127.0034252,37.506106
academy_502,샤갈의꿈미술교습소,127.0174633,37.4999252
academy_503,창창중국어교습소,127.0021861,37.5057261
academy_504,데브기어교육학원,127.0222042,37.5040914
academy_505,애플공인교육센터MFK학원,127.0188545,37.5146059
academy_506,애프엘씨(FLC)영어교습소,126.9858601,37.4977479
academy_507,넘버원헤어아카데미학원,127.0077576,37.4864095
academy_508,디지털대성원격학원,126.9919413,37.4895644
academy_509,이튼하우스수학교습소,127.0194018,37.4961119
academy_510,펀액터스화술학원,127.0220294,37.4836721
academy_511,로뎀나무음악학원,127.0249649,37.4639903
academy_512,우면한우리독서토론논술교습소,127.0232419,37.4617505
academy_513,아트인게임아트(Art in GameArt)학원,126.9843988,37.4770473
academy_514,경선식에듀원격학원,127.0154629,37.4868974
academy_515,해커스공인중개사주택관리사학원,127.0257595,37.4985613
academy_517,일월안전교육학원,127.0057703,37.4793736
academy_518,백현우과학전문학원,127.0014445,37.5096033
academy_519,(주)씨에이치비학원,127.0188717,37.5115605
academy_520,윤영숙수학전문3관학원,126.9831156,37.4933092
academy_521,아이엠수학학원,126.9869203,37.5021451
academy_522,반포스피커스(Banpospeakers)학원,127.0101953,37.5004773
academy_523,반포대학나무학원,127.008056,37.5074515
academy_524,해법한신영어교습소,127.0100772,37.5162716
academy_525,엠앤에스(M&S)수학교습소,126.9882964,37.4932005
academy_526,수학의정석원격학원,127.0368701,37.4823343
academy_527,윤선생우리집앞서이?서초영어교습소,127.0259319,37.4922553
academy_529,네이처힐음악학원,127.0262924,37.4636048
academy_530,관인뮤직트리음악학원,126.9956953,37.5030941
academy_531,블루스카이수학학원,127.0036799,37.5082166
academy_532,송은희클라리넷교습소,127.0141834,37.5154139
academy_533,한국스마트속기학원,127.0090945,37.4930614
academy_534,한양플러스음악학원,127.0255795,37.464536
academy_535,아이리스(IRIS)영어전문학원,126.9832509,37.4874986
academy_536,스터디코드원격학원,127.0208511,37.4838516
academy_537,도무스링구아학원,127.0217007,37.4655132
academy_538,숲을보는수학교습소,126.9877635,37.496656
academy_539,스케치북미술교습소,126.9970943,37.4864366
academy_540,알탐과학교습소,127.0061031,37.4798539
academy_541,에이치비아카데미학원,127.0262924,37.4636048
academy_542,리틀러너스어학원,126.9947144,37.4978056
academy_543,에스피(SP)수학학원,127.0139482,37.5066358
academy_544,올댓뷰티아카데미미용학원,127.0246315,37.5018138
academy_545,아트리미술교습소,126.9919623,37.4913667
academy_546,서초예일영어교습소,126.9982734,37.4811214
academy_547,반포해오름수학교습소,127.0008014,37.5043898
academy_548,렉시스코리아학원,127.0282025,37.4941843
academy_549,한우리서초남독서논술학원,127.0057322,37.4796886
academy_550,서울국제크리스천아카데미(SICA)학원,127.0462827,37.4685705
academy_551,매지클학원,127.0402466,37.4835512
academy_552,뮤직아카데미물댄동산음악학원,126.9848084,37.4877192
academy_553,이젠오즈수학교습소,126.993258,37.4782404
academy_554,생각나무로봇교습소,127.0115643,37.5012907
academy_555,맑은숲국어논술전문학원,126.989298,37.4935605
academy_556,움뮤직센터음악학원,127.011089,37.5013137
academy_557,천사아틀리에미술학원,127.0290848,37.4871813
academy_558,필리아사회탐구학원,127.008056,37.5074515
academy_559,최상위영수학원,127.0140371,37.4964367
academy_560,윤선생우리집앞영어ENI영어교습소,127.0448779,37.4714695
academy_561,씨엠에스반포학원,126.983763,37.4972794
academy_562,와이케이수리논술교습소,127.0310252,37.4857736
academy_563,마쌤영어보습학원,126.9888522,37.5014589
academy_564,지지경매교육학원,127.019723,37.4897081
academy_565,키즈닥터창의성영재학원,127.0104593,37.5018941
academy_566,피엔케이수학원,127.0102777,37.5019467
academy_567,아트비미술교습소,127.0180135,37.5088592
academy_568,리더스경공매학원,127.0282025,37.4941843
academy_569,인바스켓학원,127.0204518,37.4945167
academy_570,하연영재과학교습소,127.0021861,37.5057261
academy_571,케이앤(KN)영어학원,127.0104765,37.5023088
academy_572,맨해튼랩프라임영어교습소,126.9874554,37.4951846
academy_573,파츠앤팬스학원,127.0097068,37.4989324
academy_574,꼭시넬그림책학원,126.9997583,37.4961094
academy_575,서초이안어학원,127.0115643,37.5012907
academy_576,코리아승무원학원,127.0277348,37.4953698
academy_577,코리아항공운항과학원,127.0277348,37.4953698
academy_578,서준학원미래관학원,127.0040029,37.482197
academy_579,프랜차이즈아카데미학원,127.0180232,37.5098504
academy_581,르씨(R.se)무용전문센터학원,127.0144668,37.4843932
academy_582,르씨(R.se)무용전문학원,127.0144668,37.4843932
academy_583,아이코어이앤씨학원,127.0391709,37.4801365
academy_584,픽스웨이브컨셉아트아카데미학원,127.0303626,37.4845518
academy_585,줄리아발레아카데미학원,127.0112563,37.5023513
academy_586,배우앤배움아트센터학원,127.0205847,37.5094482
academy_587,피에스학원,127.0385614,37.4826995
academy_588,이디엠아트미술학원,127.0246405,37.501994
academy_589,절대수학교습소,127.0112172,37.5010265
academy_590,뉴칸타빌레음악교습소,127.0220521,37.4584969
academy_591,우솔해법영어교습소,127.0220521,37.4584969
academy_592,이루다스피치학원,127.0173102,37.4839844
academy_593,하이웨이어학원,126.9947183,37.4831726
academy_594,방배아벨수학전문학원,126.9826884,37.4797808
academy_595,와이즈만서초학원,127.0117193,37.5006883
academy_596,제비울학원,127.0100772,37.5162716
academy_597,수학일치학원,127.0139868,37.4942467
academy_598,레코드팩토리학원,127.0131891,37.4818145
academy_599,고도문예창작학원,127.0167345,37.4916746
academy_600,강남캠벨아카데미어학원,127.0286675,37.4923319
academy_601,서초씨앤씨미술학원,126.9973976,37.4823574
academy_602,그리다(Gree.Da)미술교습소,127.0219391,37.5088017
academy_603,선맹수의튜터링영어교습소,127.0150619,37.4950486
academy_604,에이브이에이(AVA)사진학원,127.0431344,37.4761049
academy_605,반포스마트러닝센터학원,127.0104777,37.4996417
academy_606,오즈액팅연기학원,126.9955141,37.4836929
academy_607,에이플수학교습소,127.0217403,37.5015015
academy_608,이티씨(ETC)영어교습소,127.0052559,37.4823517
academy_609,썬(sun)영어교습소,127.0143407,37.5197943
academy_610,피아니스트김민정아카데미방배이화음악교습소,126.9842675,37.4834076
academy_611,창조적소수미술학원,127.0105586,37.5037962
academy_612,홍익명문미술학원,126.9956953,37.5030941
academy_613,상상논술교습소,127.0104685,37.5012004
academy_614,가람과학교습소,127.0121487,37.5024309
academy_615,수학캠프수학전문학원,126.9956953,37.5030941
academy_616,청담아이가르텐학원,127.0102102,37.5002071
academy_617,반포세정2관학원,127.0011202,37.5059333
academy_618,와이즈만영재입시센터중등학원,127.0117193,37.5006883
academy_619,프라임수학교습소,127.0072892,37.5072738
academy_620,민정아트미술교습소,127.0014445,37.5096033
academy_621,서래한우리독서논술교습소,126.9877635,37.496656
academy_622,에스엔케이영어교습소,127.0021861,37.5057261
academy_623,도르레아트창작소미술학원,127.0174633,37.4999252
academy_624,다비오학원,127.0255795,37.464536
academy_625,플로아트 플로리스트 아카데미학원,127.0102144,37.4887458
academy_626,디쿨그레이학원,127.0406356,37.4787698
academy_628,라임매쓰(Lime Math)학원,126.9968983,37.4833353
academy_629,씨오엘아카데미학원,127.0189648,37.511363
academy_630,매쓰101수학교습소,127.0259319,37.4922553
academy_631,수학쟁이들학원,127.0000133,37.5049688
academy_632,매쓰홀릭학원,126.9999844,37.4995082
academy_633,올림피아드함수학원,127.0154549,37.4564778
academy_634,방배스즈키음악학원,126.9991399,37.4797321
academy_635,영재음악교습소,127.0008014,37.5043898
academy_636,대한민국명장김영모아카데미학원,127.0176131,37.4599828
academy_637,아우다키아보습학원,127.0102675,37.5010005
academy_639,커리어칼리지학원,127.0285595,37.4928176
academy_640,리세움댄스스포츠학원,127.0386507,37.4845564
academy_641,제이엠(JM)영수전문학원,127.046149,37.4719754
academy_642,다솔음악학원,126.9877072,37.4890957
academy_643,유나이티드영재음악학원,127.02239,37.4837652
academy_644,원탑잉글리쉬(ONETOPENGLISH)영어교습소,126.996786,37.4832803
academy_645,맨해튼랩에이스영어교습소,126.9874554,37.4951846
academy_646,하다수학교습소,126.9862305,37.4979583
academy_648,문준영&커넥트영어학원,126.9886189,37.4919238
academy_649,서초우리들학원,127.0138058,37.4959662
academy_650,그레잇에듀학원,126.9838364,37.4885218
academy_651,현진피아노교습소,127.0008014,37.5043898
academy_652,코어아카데미영어교습소,127.0139482,37.5066358
academy_653,내곡프린스턴영어교습소,127.0636548,37.4543375
academy_655,아트뮤지엄미술교습소,127.0636548,37.4543375
academy_656,수학몬스터서초학원,127.0101914,37.5033426
academy_657,수학과학의미학원,127.0201381,37.4960189
academy_658,더큐브아카데미학원,127.0189044,37.5168409
academy_659,탑에듀영어교습소,127.0100772,37.5162716
academy_660,윤선생우리집앞영어교실방일새라영어교습소,126.9964418,37.4861877
academy_661,토즈스터디센터교대역독서실,127.015673,37.4950086
academy_662,코어원에듀학원,127.0008014,37.5043898
academy_663,토즈스터디센터방배독서실,126.985312,37.4964637
academy_664,주한영국문화원영러너서초어학원,127.0164141,37.4954113
academy_665,버밍엄영어전문학원,127.0146492,37.5152647
academy_666,마루국어논술학원,127.0098927,37.5071155
academy_667,한뮤직컴퍼니뮤지컬교습소,127.0098927,37.5071155
academy_668,류지연음악교습소,127.0285717,37.4866365
academy_669,퍼펙트영어교습소,127.0259319,37.4922553
academy_670,케이매쓰(K MATH)수학교습소,127.0111962,37.5017651
academy_671,킹스수학교습소,126.9947134,37.5054735
academy_672,서초경매아카데미학원,126.9962046,37.4819418
academy_673,제이발레스튜디오학원,127.0151312,37.494932
academy_674,집단지성학원,127.0108133,37.5033568
academy_675,용문학원,127.0144698,37.49535
academy_676,해커스해외대학입시전문학원,127.0257595,37.4985613
academy_677,하우투스터디과학학원,127.0101438,37.5018104
academy_679,솔루니양재논술교습소,127.0462422,37.4753191
academy_680,지니어스입시미술교습소,127.0038922,37.4828718
academy_681,황액터스학원,127.0180203,37.5169777
academy_682,아르코아트미술교습소,126.9956953,37.5030941
academy_683,해법영어서초이수아카데미영어교습소,126.985518,37.4787238
academy_684,람아트스쿨학원,127.0170428,37.4931729
academy_685,고수학학원,127.0113838,37.5021181
academy_686,인바이올린교습소,127.008056,37.5074515
academy_687,숙명킨더아카데미학원,127.0416806,37.4686504
academy_688,씨이티(CET)영어학원,126.9975507,37.4979739
academy_689,스페라학원,126.9830606,37.4906957
academy_690,신대산영어전문학원,127.0041915,37.4824689
academy_691,더엠브릿지영어학원,127.0154549,37.4564778
academy_692,윤정영어학원,127.0048897,37.5065508
academy_693,제니스아카데미학원,127.0599746,37.4566871
academy_694,소도스카이학원,127.0130707,37.491671
academy_695,포레스타음악학원,127.0599746,37.4566871
academy_696,이지에듀학원,127.0406624,37.4687142
academy_697,신대찬학원,126.9901596,37.5017944
academy_698,바오밥나무미술교습소,127.0599746,37.4566871
academy_699,안스스피치학원,126.9860762,37.4909649
academy_700,오은정국어논술전문학원,127.008056,37.5074515
academy_701,강남대성별관학원,127.0144618,37.4925206
academy_702,서준학원지혜관학원,127.0043609,37.4824883
academy_703,그린램프라이브러리반포캠퍼스독서실,127.0107782,37.5025816
academy_704,소도스카이원격학원,127.0130707,37.491671
academy_705,자유의날개국어논술학원,127.0090872,37.483339
academy_706,소다뮤직아카데미학원,127.012765,37.4882625
academy_707,최신고등수학교습소,126.9861493,37.4863972
academy_708,박문각강남고시1별관학원,127.024742,37.4985349
academy_709,윤쌤수학교습소,127.0061031,37.4798539
academy_710,논술및올댓역사논술교습소,127.0021861,37.5057261
academy_711,서초신동한우리독서토론논술교습소,127.0141834,37.5154139
academy_712,소리나무음악교습소,127.0076794,37.4803537
academy_713,젠(ZEN)수학교습소,126.9869203,37.5021451
academy_714,한탑언남1관학원,127.0450577,37.4715611
academy_715,인더페이퍼학원,127.0207192,37.4922213
academy_716,작은별음악학원,127.011213,37.5004858
academy_717,핸섬아트(Handsome Art)학원,127.0286675,37.4923319
academy_718,스파크어학원,127.0101914,37.5033426
academy_719,넥서스학원,127.0042389,37.4823071
academy_720,뷰미술학원,126.996834,37.4830734
academy_721,다온수학학원,127.0108133,37.5033568
academy_722,올검정고시원격학원,127.0287126,37.4932153
academy_723,오르다샘앤클래스반포학원,127.011455,37.5018664
academy_724,오투학원,127.0226022,37.5073925
academy_725,드림댄스학원,127.0262116,37.498583
academy_726,에이스수학교습소,126.9845668,37.4788328
academy_727,비전매쓰수학교습소,127.0174633,37.4999252
academy_728,러빈아트(Lovin' art)미술교습소,127.0076794,37.4803537
academy_730,두형호영어교습소,127.0249649,37.4639903
academy_731,소통과공감미술교습소,126.98399,37.4938754
academy_732,스카이국어논술학원,127.0101379,37.5022519
academy_733,시대인재반포센터학원,127.0008014,37.5043898
academy_734,뮤엠스카이엠영어교습소,127.0275223,37.4646512
academy_735,라온수학교습소,126.9842323,37.4818304
academy_736,방배해법수학교습소,126.9870974,37.4865225
academy_737,수학시간학원,126.9893478,37.4932185
academy_738,뮤직라이브러리원격학원,127.0114993,37.4856299
academy_739,키즈스피치예소스학원,127.0113091,37.5000631
academy_740,안녕국어교습소,127.0100772,37.5162716
academy_741,핫클레이스(hotclays)도예교습소,127.0248042,37.4911468
academy_742,아르스피아노교습소,127.0006421,37.4790059
academy_743,돌체플루트교습소,127.0006421,37.4790059
academy_744,아람플러스학원,127.0259247,37.4875878
academy_745,폴고갱미술교습소,127.045778,37.4718102
academy_746,한국꽃예술학원,127.0409167,37.4691578
academy_747,한국전통발효아카데미학원,127.0210749,37.4840337
academy_748,더블유(W)방송연기학원,127.0163573,37.4859497
academy_749,세인트폴서울학원,127.0109346,37.5001591
academy_750,세인트폴프리페라토리서울(Saint Paul Preparatory Seoul)학원,127.0109346,37.5001591
academy_751,힘멜학원,127.0176912,37.511875
academy_752,누나영아카데미어학원,127.0279529,37.4951193
academy_753,한미술교습소,127.0398101,37.4823132
academy_755,상위권수학자이학원,127.0098927,37.5071155
academy_756,웨스턴영어학원,127.0008014,37.5043898
academy_757,그린램프라이브러리반포2캠퍼스독서실,127.0012576,37.5058083
academy_758,장지윤바이올린교습소,127.0217403,37.5015015
academy_759,서초국어논술교습소,127.0094136,37.4834499
academy_760,스타에듀학원,127.0455145,37.4720874
academy_761,꽃피다국어교습소,127.0101216,37.5034862
academy_762,김쌤수학교습소,127.0562945,37.4473228
academy_763,코오롱피아노교습소,127.0274887,37.4724811
academy_764,이루다수학학원,127.0104685,37.5012004
academy_765,아카데미라운지구반포독서실,126.9874334,37.5026721
academy_766,잉글리쉬101영어학원,127.0253052,37.4699942
academy_767,엠아이서초어학원,127.0113091,37.5000631
academy_768,엘아이엘(LIL)영어교습소,127.0112563,37.5023513
academy_769,아롱다롱음악교습소,126.9864856,37.4866073
academy_770,공감국어교습소,127.0034252,37.506106
academy_771,서앤박수학학원,127.0120964,37.5029711
academy_772,서초크라센어학원,127.0118486,37.5003199
academy_773,발레플러스발레학원,127.023229,37.5052982
academy_774,수자담수학전문학원,126.9858738,37.4908821
academy_775,서리풀랩독서실,127.0054708,37.4823445
academy_776,이영준아카데미학원,127.0142996,37.4885096
academy_777,공간수학교습소,127.0055318,37.5067454
academy_778,서초애플과학교습소,127.0259319,37.4922553
academy_779,엘앤케이(LNK)영어교습소,127.0200648,37.4635353
academy_780,길찬국어교습소,127.0094136,37.4834499
academy_781,산김영준국어논술전문학원,126.9956953,37.5030941
academy_782,이투스투포세븐학원,127.0174069,37.4938697
academy_783,전수진과학교습소,127.0072892,37.5072738
academy_784,종이에서꿈꾸는미술교습소,126.9842424,37.4819206
academy_785,제이매쓰수학학원,126.9856682,37.4977192
academy_786,입시창조적소수미술학원,127.0105586,37.5037962
academy_787,매쓰매티카(Mathematica)수학교습소,127.0048897,37.5065508
academy_788,맘스(moms)수학학원,127.0140803,37.4965902
academy_789,플라이매쓰(FLY MATH)학원,127.0146492,37.5152647
academy_790,내담논술교습소,127.0014445,37.5096033
academy_791,코어과학수학학원,126.9910457,37.487214
academy_792,더블에이트연기학원,127.0173716,37.5129626
academy_793,서초청담클루빌어학원,127.0322158,37.4749978
academy_794,어썸팩토리서초플레이스독서실,127.0174633,37.4999252
academy_795,링구아프랑카영어교습소,127.0100772,37.5162716
academy_796,온수학교습소,127.0048897,37.5065508
academy_797,교대그로티학원,127.0165776,37.4932951
academy_798,한율학원,126.9869203,37.5021451
academy_799,서초진흥한우리독서토론논술교습소,127.0236865,37.4970845
academy_800,반포이엠서초해법수학학원,127.0010156,37.5061397
academy_801,김정에듀학원,126.9892669,37.492506
academy_802,로앤장수학학원,127.0092948,37.5035783
academy_803,아트멘토미술학원,127.0008014,37.5043898
academy_804,수학에미친사람들서초학원,127.0075413,37.4831008
academy_805,생각하는두꺼비수학5관학원,127.0259319,37.4922553
academy_806,생각의탄생학원,127.0102675,37.5010005
academy_807,제니아트미술교습소,127.0014445,37.5096033
academy_808,서정음악학원,126.9989431,37.4987245
academy_809,이안학원,127.0452942,37.4716261
academy_810,한수연과학교습소,126.9874554,37.4951846
academy_811,자몽미술학원,127.0045351,37.4821384
academy_812,강남스즈키음악학원,127.0207994,37.4904108
academy_813,곽선생중국어교습소,127.0174633,37.4999252
academy_814,서초우면소마학원,127.0255795,37.464536
academy_815,아이크리스마스어학원,127.0053862,37.4861733
academy_816,미술관그림미술교습소,127.0259319,37.4922553
academy_817,에꼴드아미(ecole de ami)미술교습소,126.985494,37.4846796
academy_818,조건반사영어원격학원,127.0144637,37.4915115
academy_819,뮤직슐레음악교습소,127.0572224,37.4517274
academy_820,위첼아카데미학원,127.0166687,37.5148039
academy_821,홀리프레이즈음악학원,126.9862387,37.4931648
academy_822,과학의진수학원,127.0034252,37.506106
academy_823,생각하는두꺼비수학8관학원,127.008056,37.5074515
academy_824,어썸팩토리방배독서실,126.9896107,37.4946895
academy_825,브라가밸리잉글리쉬학원,126.9900476,37.4924766
academy_826,잠원스타스즈키바이올린교습소,127.0014445,37.5096033
academy_827,세움(seum)학원,127.0174633,37.4999252
academy_828,아이들미술교습소,127.0008014,37.5043898
academy_829,문재호국어논술교습소,126.9834123,37.4872747
academy_830,더리얼학원,126.9829008,37.4824677
academy_831,윤쎈과학교습소,127.0034252,37.506106
academy_832,한선생중국어교습소,127.0259319,37.4922553
academy_833,서초애니스타만화학원,126.9973976,37.4823574
academy_834,생각이룸독서논술국어학원,127.024887,37.4917331
academy_835,세빛관학원,127.0012576,37.5058083
academy_836,렉시스어학원,127.0282025,37.4941843
academy_837,숲컴퍼니연기학원,127.0397977,37.4850523
academy_838,케이알(KR)부동산아카데미학원,127.0139828,37.490246
academy_839,논통아카데미학원,127.0150422,37.4931021
academy_840,수퍼(super)매쓰(math)학원,126.9983666,37.4809149
academy_841,서울중앙음악학원,127.0438654,37.4710829
academy_842,연세포레피아노교습소,127.0014445,37.5096033
academy_843,공감영재아카데미학원,126.9902826,37.485099
academy_844,이엠수학교습소,127.0094136,37.4834499
academy_845,서초키마학원,126.9896414,37.494933
academy_846,예손음악교습소,126.9838364,37.4885218
academy_847,테스(TES)영어교습소,127.0253957,37.4708599
academy_848,공자중국어교습소,127.0034252,37.506106
academy_849,더매쓰(THE MATH)수학전문학원,127.0153219,37.4571345
academy_851,탑클래스학원,126.9840738,37.4910288
academy_852,한강수학교습소,127.0155471,37.5209668
academy_853,극한스피킹학원,127.0252901,37.4981339
academy_854,두쏭음악교습소,127.020082,37.5098315
academy_855,해법수학교실반포학원,127.0113091,37.5000631
academy_856,강남완전학습관학원,127.0286073,37.4934938
academy_857,한우리독서토론논술교습소,127.0035592,37.5087922
academy_858,엔디에이취(NDH)발성교정아카데미학원,127.046149,37.4719754
academy_859,방배캠퍼스현재어학원,126.9858141,37.486097
academy_860,진선생구반포관영어학원,127.0011202,37.5059333
academy_861,러셀강남독서실,127.0290761,37.4922182
academy_862,서초소마2관학원,127.0101216,37.5034862
academy_863,서준학원,127.0029788,37.4826839
academy_864,수학을삼키다학원,126.9830606,37.4906957
academy_865,러셀강남학원,127.0290761,37.4922182
academy_866,세계로에듀반포학원,127.0104885,37.5039668
academy_867,수학스쿨(SCHOOL)학원,126.9901596,37.5017944
academy_868,우암방과후공부방수학교습소,127.0240373,37.4701279
academy_869,엘앤케이(LNK)스터디브릭스보습학원,127.0213742,37.4654114
academy_870,으뜸수학교습소,127.0034252,37.506106
academy_871,919수학학원,127.006478,37.5070327
academy_872,개념폴리아서초관학원,127.0115707,37.5016692
academy_873,수학의상상력학원,127.0008014,37.5043898
academy_874,와이국어논술학원,127.0136537,37.4963524
academy_875,엘브라운(El.Brown)학원,126.9869203,37.5021451
academy_876,새미준영어교습소,127.0140803,37.4965902
academy_877,코리아요리학원,127.0279561,37.4948761
academy_878,일공이제이유(EJU)학원,127.0111828,37.4916282
academy_879,생각하는두꺼비수학3관학원,127.0101379,37.5022519
academy_880,구반포진선생어학원,126.9869203,37.5021451
academy_881,라라음악학원,127.0153219,37.4571345
academy_884,토토미술교습소,126.9962157,37.4980166
academy_885,평정수학학원,127.0054708,37.4823445
academy_886,해피아트프로젝트미술교습소,127.0146374,37.5161566
academy_887,바움아트클래스미술교습소,127.0098927,37.5071155
academy_888,해법중국어북경대중국어교습소,127.008056,37.5074515
academy_889,내곡프린스턴수학교습소,127.0636548,37.4543375
academy_890,이지에듀원격학원,127.0406624,37.4687142
academy_891,하오펑유(HaoPengYou)중국어교습소,127.0055318,37.5067454
academy_892,스터디코트수학교습소,126.9869203,37.5021451
academy_893,레보자르아뜰리에교습소,126.999387,37.498512
academy_894,크레버스영재관서초제1지점학원,127.0101396,37.5029817
academy_895,페디아플러스방배학원,126.9897785,37.4931501
academy_896,키즈스피치스카이화술교습소,127.0144042,37.4960433
academy_897,천년의미소베이스캠프미술학원,126.997547,37.4821784
academy_898,알로와경매학원,126.9834869,37.4734172
academy_899,네이처탐구전문학원,127.0034252,37.506106
academy_900,조이투리드영어교습소,126.9921186,37.4856283
academy_901,리드101잠원영어학원,127.012505,37.5148773
academy_903,서초토피아어학원,126.991494,37.4917141
academy_904,말하는영어교습소,127.0217403,37.5015015
academy_905,피바디음악교습소,127.0006421,37.4790059
academy_906,허쌤수학교습소,126.9869203,37.5021451
academy_907,디알(DR)수학교습소,127.009858,37.5037543
academy_908,디토랩미술교습소,127.0141317,37.4961221
academy_909,서울서초내공독서실,126.9834848,37.4911048
academy_910,안경쓴고양이미술교습소,127.0217403,37.5015015
academy_911,제이뮤직아카데미음악교습소,126.9947134,37.5054735
academy_912,에이치이씨(HEC)영어교습소,126.9997932,37.4994255
academy_913,칸미디어학원,127.0395969,37.4786532
academy_914,톤연기학원,127.0177842,37.5134076
academy_915,그레이트에이미술학원,127.0008014,37.5043898
academy_916,포커스영화학원,127.0315247,37.4873726
academy_917,두드림보습학원,126.9831342,37.4919398
academy_918,더피아노교습소,127.0141834,37.5154139
academy_919,필영어교습소,127.0141834,37.5154139
academy_920,카타르시스연기학원,127.0192005,37.5115001
academy_921,서초어반트리독서실,127.0217811,37.5027093
academy_922,키(KEY)과학학원,127.0072892,37.5072738
academy_923,예음바이올린교습소,127.012073,37.5021689
academy_924,빛이룸영어교습소,127.006478,37.5070327
academy_925,아임프롬보컬학원,127.0178284,37.5160841
academy_927,스토리에듀케이션학원,127.0155899,37.4884212
academy_928,코듀크리에이티브반포센터학원,126.9840738,37.4910288
academy_929,개념폴리아서초2관학원,127.0111962,37.5017651
academy_930,코리아제2캠퍼스학원,127.0277725,37.4950818
academy_931,발레앤코강남서초학원,126.9915865,37.4915617
academy_932,리드인서초원명점독서논술교습소,127.0174633,37.4999252
academy_933,플랜에이프리미엄독서실,127.0156993,37.4947295
academy_934,에듀코치개별지도서초2학원,127.0075413,37.4831008
academy_935,반포파인만중등관학원,127.0104411,37.5007046
academy_936,아이원이앤엠학원,126.9982803,37.4882307
academy_937,선우수학교습소,127.0143407,37.5197943
academy_938,코치클래스영어교습소,127.0259319,37.4922553
academy_939,엠원학원,127.0075327,37.4828935
academy_940,북스토리학원,127.010651,37.5010848
academy_941,뮤엠서초원명점영어교습소,127.0190881,37.498479
academy_942,레히연기로드학원,126.9837401,37.4822767
academy_943,반포파인만고등2관학원,127.0010156,37.5061397
academy_944,레슨포케이아트연극영화학원,127.018483,37.5144676
academy_945,뮤직플러싱(Music+ing)음악학원,127.0103877,37.5021819
academy_946,이케이티(EKT)이론영어교습소,127.0174633,37.4999252
academy_947,뮤엠영어서래미쉘영어교습소,126.9880473,37.4957393
academy_948,진리수학영어학원,127.0103877,37.5021819
academy_949,리디아(Lydia)영어교습소,127.0048897,37.5065508
academy_950,링구아엠영어전문학원,127.0104456,37.5003622
academy_951,이음수학교습소,127.0103272,37.5024787
academy_952,비끄아트서초우면점미술교습소,127.0162246,37.4563941
academy_953,크레버스씨큐브코딩서초제1지점학원,127.0112563,37.5023513
academy_954,소미아트서초센터학원,127.010651,37.5010848
academy_955,이김이호석국어교습소,126.9982752,37.4886091
academy_956,이김김소연영어교습소,126.9982752,37.4886091
academy_957,아르코음악교습소,126.9947134,37.5054735
academy_958,코프디자인플로리스트학원,127.0391725,37.472063
academy_959,연세리체음악교습소,127.0120964,37.5029711
academy_960,카머(kammer)기타교습소,127.0184822,37.4972486
academy_961,연세루첸음악교습소,127.0139482,37.5066358
academy_962,릴드당스발레학원,126.9950778,37.4867168
academy_963,생각하는황소서초2관학원,127.0096267,37.5007158
academy_964,광태수학학원,127.008056,37.5074515
academy_965,에스(S)학원,127.0011202,37.5059333
academy_966,생각하는두꺼비수학2관학원,127.008056,37.5074515
academy_967,퍼스트수학교습소,127.0104685,37.5012004
academy_968,김영편입연고대전문관학원,127.0286073,37.4934938
academy_969,최우식과학전문학원,126.9869203,37.5021451
academy_970,그린램프라이브러리서초캠퍼스독서실,127.0050726,37.4825304
academy_971,정경희수학교습소,127.0021861,37.5057261
academy_972,원명최상위해법수학교습소,127.0174633,37.4999252
academy_973,방배맑은숲국어논술전문학원,127.009114,37.4838799
academy_974,메티스수학교습소,127.0081655,37.4914768
academy_975,수학에미친사람들방배관학원,126.9842208,37.49103
academy_976,에스비에스(SBS)아카데미컴퓨터아트강남2캠퍼스학원,127.0265011,37.4980628
academy_977,제이디엠영어학원,127.0008014,37.5043898
academy_978,서초네이처학원,127.0275223,37.4646512
academy_979,수학을삼키다2관학원,126.983044,37.491083
academy_980,마하수학교습소,127.0048897,37.5065508
academy_981,시작독서실,127.0086779,37.4869308
academy_982,반포뉴딜수학교습소,127.0034252,37.506106
academy_983,골든캠퍼스학원,127.0171065,37.4917678
academy_984,퀀텀점프수학교습소,127.0021861,37.5057261
academy_985,최영주독서토론논술교습소,127.0055318,37.5067454
academy_986,제니영어학원,127.045429,37.4716993
academy_987,반포서래보습학원,126.9989121,37.498499
academy_988,파머스영어학원웰라캠퍼스학원,126.9890188,37.4916208
academy_989,혜윰건축학원,127.0204182,37.4858303
academy_990,서울일러스트아트학원,127.0239744,37.4984294
academy_991,썬수학교습소,127.0048897,37.5065508
academy_992,한길수학교습소,127.0174633,37.4999252
academy_993,서초더(THE)강한학원,127.0118486,37.5003199
academy_994,크리에이티브랭귀지컨설팅어학원,126.9965902,37.4843959
academy_995,서초지니엠국어학원,127.011089,37.5013137
academy_996,허영주수학교습소,126.9864578,37.4878325
academy_997,수분과열미용학원,127.0217739,37.5058629
academy_998,알티씨에듀(RTC Edu)학원,127.0109089,37.5021051
academy_999,이루다스피치온라인강의학원,127.0158216,37.4862697
academy_1000,엔터스카이학원,126.9880452,37.5017583
academy_1001,생각하는황소서초학원,127.0096267,37.5007158
academy_1002,르네드뮤제학원,127.0139482,37.5066358
academy_1003,201수학교습소,126.9892362,37.4956234
academy_1004,서초채움학원,127.0253341,37.4642817
academy_1006,3옥타브장인보컬학원,127.0196714,37.4945193
academy_1007,댄스피버스튜디오학원,126.993106,37.4803025
academy_1008,서일영수전문학원,127.025117,37.4705513
academy_1009,정인학원,127.0174633,37.4999252
academy_1010,서리풀(SEORIPUL)학원,127.0426235,37.4727218
academy_1011,서초라이즈어학원,127.0096267,37.5007158
academy_1012,박지현국어전문국어교습소,127.009114,37.4838799
academy_1013,뮤직풀(MUSICPOOL)음악교습소,127.0636548,37.4543375
academy_1014,투디제이(2DJ)댄스학원,126.9891516,37.4935142
academy_1015,비엠지(BMG)학원,127.008056,37.5074515
academy_1016,오랜지미술교습소,127.0250988,37.4710827
academy_1017,열린아카데미학원,127.0167345,37.4916746
academy_1018,지앤와이(G&Y)미술학원,127.0378996,37.4814056
academy_1019,오픈유어뮤직학원,127.0248816,37.4695311
academy_1020,한수연과학학원,126.989298,37.4935605
academy_1021,102수학교습소,126.9874554,37.4951846
academy_1022,플랫나인댄스학원,127.0009546,37.4784589
academy_1023,예술해미술교습소,126.985353,37.4825699
academy_1024,코어영어학원,126.9853758,37.4817141
academy_1025,코리아요리아카데미학원,127.0279561,37.4948761
academy_1026,공터영어서초힐스센터학원,127.0153219,37.4571345
academy_1027,해법킹스턴영어교습소,127.0250988,37.4710827
academy_1029,맘스에듀케어서초우솔캠퍼스학원,127.0159922,37.4568787
academy_1031,이비에스뷰티아카데미학원,126.9826559,37.4880161
academy_1032,코드랩아카데미학원,127.0246405,37.501994
academy_1033,대한논리독서논술학원,127.0102102,37.5002071
academy_1034,세영학원,127.0034252,37.506106
academy_1035,더큰생각수학학원,127.009858,37.5037543
academy_1036,두드림박스(dodream box)음악교습소,127.0014445,37.5096033
academy_1037,엔닷어학원,127.0090871,37.503892
academy_1038,맥스(MACS)입시전략학원,127.0142195,37.4963301
academy_1039,권쌤쇼호스트학원,126.9933331,37.4861252
academy_1040,아트스튜디오(ART STUDIO)우주미술교습소,126.9877635,37.496656
academy_1041,지니프라임영어교습소,127.0259319,37.4922553
academy_1042,라온피아노음악교습소,126.983354,37.4907433
academy_1043,이투스ECI원격학원,127.0291114,37.4842531
academy_1044,뮤엠영어이수학원,126.9844559,37.4786787
academy_1045,연기해봄연기교습소,126.9901074,37.4947568
academy_1046,더매쓰Junior수학전문학원,127.0154549,37.4564778
academy_1047,스튜디오6120미술교습소,127.0006388,37.4775552
academy_1048,라라랜드미술교습소,126.9898209,37.4950337
academy_1049,리드윈학원,127.0281389,37.4947334
academy_1050,사당건축토목학원,126.9829698,37.4807113
academy_1051,뉴턴지니어스센터학원,127.0155899,37.4884212
academy_1052,어나덜미독서실,126.9924892,37.4900286
academy_1053,이즈(EASE)발레교습소,126.9985694,37.4987574
academy_1054,배우앤배움키즈센터학원,127.0206473,37.5098542
academy_1055,수학의달인수학스터디수학교습소,127.0599746,37.4566871
academy_1056,하우솔교육센터학원,127.0357793,37.484506
academy_1057,칼라항공아카데미학원,127.028693,37.4929899
academy_1058,현문국어학원,127.0113091,37.5000631
academy_1059,비연성장반포황지원국어논술학원,126.9858601,37.4977479
academy_1060,사만다아카데미학원,127.0260939,37.4989425
academy_1061,너나들이국어논술학원,127.0046736,37.4819233
academy_1062,잉글리시아이영어교습소,127.0553559,37.4482614
academy_1063,서초예음음악학원,127.010651,37.5010848
academy_1065,비욘드코딩학원,126.9968555,37.4992204
academy_1066,류샘수학학원,126.9886189,37.4919238
academy_1067,엘리트학원,127.0259319,37.4922553
academy_1068,튼튼영어마스터클럽방배초영어교습소,126.9861486,37.4872802
academy_1069,월광서재이수독서실,126.982931,37.4894151
academy_1070,에스클래스(Sclass)원격학원,127.0178205,37.4847365
academy_1071,부동산멘토학원,127.0148824,37.4923529
academy_1073,토다이어학원,127.0286073,37.4934938
academy_1074,디자인블루문미술교습소,127.0034252,37.506106
academy_1075,더첼로음악교습소,127.0141834,37.5154139
academy_1076,키즈아트미술학원,127.0249649,37.4639903
academy_1077,해바라기미술학원,127.0146492,37.5152647
academy_1078,네온댄스학원,127.0202372,37.5100761
academy_1079,원패스에듀진학상담.지도교습소,126.9871492,37.5011109
academy_1080,에이엠비(AMB)수학학원,126.9853718,37.4978969
academy_1081,인사이트수학학원,127.0102248,37.5008109
academy_1082,처음과끝학원,127.0097136,37.5035548
academy_1083,퍼스트학원,127.0599746,37.4566871
academy_1084,하이팩토수학교습소,126.9892717,37.4955065
academy_1085,강한학원,127.0247163,37.4709444
academy_1086,책읽기와글쓰기리딩엠서초학원,127.0102102,37.5002071
academy_1087,까사데이밤비니학원,126.9948913,37.4913556
academy_1088,아담리즈수학서초센터학원,127.0104411,37.5007046
academy_1089,벨칸토성악교습소,126.9852682,37.4938503
academy_1090,파란아카데미미용학원,127.020907,37.5107484
academy_1091,골목길피아노교습소,126.9970943,37.4864366
academy_1092,비씨씨주니어어학원,127.0142921,37.4813372
academy_1093,이샘아카데미영어교습소,127.0174633,37.4999252
academy_1094,수학돼지잠원관수학교습소,127.0143407,37.5197943
academy_1095,서초에스(S)과학교습소,127.0217403,37.5015015
academy_1096,두드림(DoDream)피아노교습소,126.9852682,37.4938503
academy_1097,입시전문코벤트학원,126.99508,37.4848696
academy_1098,수학대장학원,126.989495,37.4948867
academy_1099,깊은생각서초학원,127.0110704,37.5010072
academy_1100,대치엠영어?수학학원,127.0595123,37.4566024
academy_1101,특별한힘을파는가게논술교습소,126.9897902,37.4947991
academy_1102,수학그이상수플러스수학교습소,127.0104456,37.5003622
academy_1103,튜튜발레학원,127.0181009,37.4952811
academy_1104,해법영어핸썸클래스영어교습소,127.0190881,37.498479
academy_1105,레슨포케이아트학원,127.018483,37.5144676
academy_1106,원명하연과학교습소,127.0190881,37.498479
academy_1107,다온수학교습소,126.989354,37.492759
academy_1108,연세킬만수학교습소,126.9947134,37.5054735
academy_1109,더윈영어교습소,127.0217403,37.5015015
academy_1110,아카이브401아트&디자인미술학원,127.025117,37.4705513
academy_1111,로보티즈코드스튜디오학원,127.0112172,37.5010265
academy_1112,강남정일학원,127.0170027,37.4919201
academy_1113,문단비책영어학원,126.9954028,37.4827189
academy_1114,퍼스트바리스타학원,127.0260939,37.4989425
academy_1115,프랜시스파커서초어학원,126.9897529,37.4790935
academy_1116,포레피아노교습소,127.0087853,37.5010511
academy_1117,해커스경영아카데미학원,127.0257595,37.4985613
academy_1118,코리아바리스타제과제빵학원,127.0279352,37.4947407
academy_1119,윤선생잠원영어교습소,127.0014445,37.5096033
academy_1120,제이엔케이(JNK)영어교습소,126.9877635,37.496656
academy_1121,러셀강남별관학원,127.0288535,37.491946
academy_1122,알록달록공작소미술교습소,127.0211554,37.4934593
academy_1123,써밋잉글리시아카데미(Summit English Academy)학원,127.0099278,37.5010337
academy_1124,댄스플사당댄스학원,126.9838025,37.4785019
academy_1125,잎새음악학원,127.0211554,37.4934593
academy_1127,코스믹아고라서초점부설학원,127.0146027,37.4921253
academy_1128,마인드업수학교습소,127.0250988,37.4710827
academy_1129,슈필렌음악학원,127.0010156,37.5061397
academy_1130,길(GIL)영어교습소,126.9822277,37.4804075
academy_1131,파츠앤팬스1관학원,127.0097068,37.4989324
academy_1132,파츠앤팬스2관학원,127.0097068,37.4989324
academy_1133,창작공방문예창작학원,126.984071,37.492074
academy_1134,4퍼센트수학학원,127.0108133,37.5033568
academy_1135,아뜰리에달미술교습소,127.0217403,37.5015015
academy_1136,민트보이스아카데미학원,127.0430147,37.4810597
academy_1137,리틀팍스서초어학원,127.0101493,37.499675
academy_1138,지엠에스큐학원,127.0083236,37.4837922
academy_1139,사일연연기학원,126.9822037,37.4796775
academy_1140,신사음악교습소,127.0141834,37.5154139
academy_1141,쇼팽피아노교습소,127.0141834,37.5154139
academy_1142,하늘꿈피아노교습소,126.9830783,37.4877224
academy_1143,태즈아트학원,127.0420491,37.4805293
academy_1144,위에듀학원,126.9897529,37.4790935
academy_1145,주액터스연기학원,127.019317,37.5155648
academy_1146,앨더영어교습소,127.009114,37.4838799
academy_1147,와이와이(YY)스쿨어학원,127.0007487,37.4786374
academy_1148,투연기학원,127.0216678,37.5087904
academy_1149,안녕피아노음악교습소,127.0154549,37.4564778
academy_1150,정석수학학원,127.0104441,37.5004794
academy_1151,제이케이(J.K)음악교습소,127.0075327,37.4828935
academy_1152,사이언스멘토과학교습소,127.0034252,37.506106
academy_1154,강남종로교대학원,127.0175491,37.4933753
academy_1155,그림아트스튜디오잠원미술교습소,127.0145577,37.520499
academy_1156,르빠레트미술교습소,126.9896609,37.4951584
academy_1157,대치명인학원,127.006478,37.5070327
academy_1158,장의순국어학원,127.0021861,37.5057261
academy_1159,해커스경영아카데미독서실,127.0257595,37.4985613
academy_1160,잉크레더블학원,127.0253341,37.4642817
academy_1161,상상이상수학교습소,127.0034252,37.506106
academy_1162,더피아노프리미엄피아노교습소,127.0141317,37.4961221
academy_1163,우리가이과다학원,126.9963195,37.4843395
academy_1164,엠에스씨서초학원,127.0101914,37.5033426
academy_1165,원더스잉글리시아카데미(Wonders English Academy)학원,126.9980205,37.4966713
academy_1166,반포세정학원,127.0021861,37.5057261
academy_1167,비원부동산학원,126.9829698,37.4807113
academy_1168,팍스뮤직(PARKSMusic)성인전문음악학원,127.0213015,37.4857295
academy_1169,양재위드피아노학원,127.0363734,37.4831502
academy_1170,벼리엔터테인먼트학원,127.021997,37.4870238
academy_1171,애니영영어교습소,127.0083647,37.4832519
academy_1172,포인트수학전문학원,127.0038922,37.4828718
academy_1173,핑크엠실용음악학원,127.0205019,37.5105918
academy_1174,엠앤에스(M&S)수학과학전문학원,127.0306564,37.4889423
academy_1175,뮤직그리다음악학원,126.9940796,37.4894835
academy_1176,마녀쌤영어3관학원,126.9871492,37.5011109
academy_1177,올바른필름아카데미학원,127.02204,37.5045405
academy_1178,강남샘(SEM)리딩트리영어학원,127.0217403,37.5015015
academy_1179,안쌤의쉬운과탐교습소,127.006478,37.5070327
academy_1180,세종피아노교습소,127.0154549,37.4564778
academy_1181,반포필즈수학교습소,127.0021861,37.5057261
academy_1182,에이치와이댄스학원,126.9829008,37.4824677
academy_1183,제이원수학학원,127.0109089,37.5021051
academy_1184,더올림수학학원,127.0269048,37.4878662
academy_1185,이우람수학학원,126.9876582,37.4918885
academy_1186,젬마아트(GEMMA ART)미술교습소,126.9963431,37.4859616
academy_1187,밍글잉글리쉬학원,127.0141834,37.5154139
academy_1188,세일학원,127.0217403,37.5015015
academy_1189,트리즈원(TRIZONE)수학학원,127.0101216,37.5034862
academy_1190,잠원프라임영어교습소,127.0100772,37.5162716
academy_1191,서초바움뮤직스튜디오음악교습소,127.0259319,37.4922553
academy_1192,한국경매학원,127.0147091,37.4934958
academy_1193,더좋은수학교습소,127.0190881,37.498479
academy_1194,반포해냄2관학원,127.0021861,37.5057261
academy_1195,독서코칭리드인논술교습소,127.0322158,37.4749978
academy_1196,반포해냄3관학원,127.0021861,37.5057261
academy_1197,미대입시창조적소수미술학원,127.0105586,37.5037962
academy_1198,파인만영재고센터영재관학원,127.0010156,37.5061397
academy_1199,한국주류안전협회학원,126.9972042,37.4883657
academy_1200,유달리아트(UDALLY ART)미술교습소,127.0131969,37.4889599
academy_1201,킥스(KICS)프렙스쿨(PrepSchool)학원,127.024534,37.4710511
academy_1202,하랑국어교습소,126.9982734,37.4811214
academy_1203,김해람연구소가야금병창교습소,127.0259319,37.4922553
academy_1204,연세최수학교습소,127.0259319,37.4922553
academy_1205,마중물3관학원,127.0075327,37.4828935
academy_1206,헨리영어학원,127.0104885,37.5039668
academy_1207,이안서가국어교습소,127.0102102,37.5002071
academy_1208,에스더피아노교습소,127.0100772,37.5162716
academy_1209,윤선생우리집앞영어교실반포서래영어교습소,126.9977473,37.4993451
academy_1210,카이수학교습소,127.0021861,37.5057261
academy_1211,누리나래교육학원,127.0320075,37.4850158
academy_1212,플러스수학교습소,127.0232419,37.4617505
academy_1213,솔바이올린교습소,127.0153481,37.4939156
academy_1214,그림아트스튜디오반포점미술교습소,127.009365,37.5033987
academy_1215,에꼴음악교습소,127.0455145,37.4720874
academy_1216,에꼴미술교습소,127.0455145,37.4720874
academy_1218,앤수학서초2관수학교습소,127.0312506,37.4875866
academy_1219,매쓰탑수학전문학원,127.046314,37.4723372
academy_1220,윤선생우리집앞영어교실방배동부영어교습소,126.9861493,37.4863972
academy_1221,서초티오티(TOT)반포1관학원,127.0113091,37.5000631
academy_1222,코너스톤서울(Cornerstone Seoul)학원,127.0391666,37.4716395
academy_1223,에이스영어서초본점학원,127.0048125,37.4825372
academy_1224,아르떼미술교습소,127.0087853,37.5010511
academy_1225,황금대지아카데미학원,127.0161899,37.4926792
academy_1226,휴몬랩코딩반포학원,127.0105381,37.5027778
academy_1227,키츠(KEETS)영어교습소,127.0072892,37.5072738
academy_1229,메이듀수학학원,126.9824439,37.4844731
academy_1231,윤선생영어교실내곡포레영어교습소,127.0636548,37.4543375
academy_1232,아자영어학원,127.0115707,37.5016692
academy_1233,유펜영어교습소,127.0090872,37.483339
academy_1234,카리스연기학원,127.0169623,37.5139774
academy_1235,레포케영화교습소,127.0197942,37.5136766
academy_1236,아티스뮤직(Artis Music)음악학원,126.9892362,37.4956234
academy_1237,서래본원와이즈리더영어독서전문학원,126.9893915,37.495012
academy_1238,참좋은독서실,126.9871492,37.5011109
academy_1239,벨에포크당스발레학원,126.998111,37.4975191
academy_1240,올리는수학학원,126.9832186,37.4907151
academy_1241,로직매쓰수학교습소,127.0072892,37.5072738
academy_1242,서초맑은숲국어논술전문학원,127.0101216,37.5034862
academy_1243,깊은생각서초2관학원,127.0104685,37.5012004
academy_1244,미술로생각하기반포학원,127.0102248,37.5008109
academy_1245,폴리박사영어교습소,127.0055318,37.5067454
academy_1246,플럼어학원,127.0102835,37.5152101
academy_1247,수풀림수학과학학원,127.0104456,37.5003622
academy_1248,엠에스케이학원,127.0129891,37.4901386
academy_1249,에임하이(AIM HIGHER)영어교습소,126.9979132,37.4996258
academy_1250,수학대장3관학원,126.9959086,37.4846334
academy_1251,성적올리는수학영어학원,126.9899523,37.4928362
academy_1252,포엠플로리스트학원,127.0204333,37.5097803
academy_1253,러닝어취브영어국어학원,127.0598003,37.4534599
academy_1254,스키테수과공학교육학원,126.9969114,37.4891201
academy_1255,아이이(IE)영어교습소,127.0008014,37.5043898
academy_1256,언어비상날다스카이학원,127.0151259,37.4962025
academy_1257,수학봄학원,126.9956953,37.5030941
academy_1258,이루다국어학원,126.9845826,37.4910332
academy_1259,청출어람국어전문학원,126.9831342,37.4919398
academy_1260,예도아카데미학원,126.9841068,37.4794055
academy_1261,알31사운드(R31SOUND)실용음악교습소,126.9881427,37.4760883
academy_1262,진선생어학원센트럴관학원,127.0012576,37.5058083
academy_1263,원앤온리댄스학원,127.045778,37.4718102
academy_1264,서래음악교습소,126.9880473,37.4957393
academy_1265,와이제이에뚜왈발레학원,126.9861767,37.487713
academy_1266,베케스투아(Bekkestua)피아노교습소,127.0370738,37.4752717
academy_1267,강남메가스터디팀플전문관독서실,127.0140309,37.4865881
academy_1268,코너스톤아카데미학원,127.0408986,37.4723474
academy_1269,책읽는루브르아뜰리에내곡센터미술교습소,127.0572224,37.4517274
academy_1270,이데아미술교습소,126.9982734,37.4811214
academy_1271,광태수학4관학원,127.011455,37.5018664
academy_1272,99스페이스학원,127.012225,37.4923488
academy_1273,한우리방배4동논술교습소,126.9864856,37.4866073
academy_1274,씨지페이션스게임학원,127.0310319,37.4870081
academy_1275,헤브론어학원,127.011089,37.5013137
academy_1276,서초케이원영어학원,127.0118486,37.5003199
academy_1277,기초와창의리얼아이교육학원,127.0557219,37.447922
academy_1278,수리원교육수학학원,127.0008014,37.5043898
academy_1279,크레버스영재관서초제2지점학원,127.0100401,37.5036657
academy_1280,내인생의수학교습소,127.0194018,37.4961119
academy_1281,우디쌤의영화아카데미영화교습소,127.020806,37.5037644
academy_1282,서초해법영어교습소,127.0217403,37.5015015
academy_1283,김영플러스여학생전용관학원,127.0256058,37.4999476
academy_1284,생각하는황소서초3관학원,127.0055318,37.5067454
academy_1285,선우미술교습소,127.0141834,37.5154139
academy_1286,홍채희꽃과정원아카데미학원,126.991373,37.4872619
academy_1287,뉴파인반포학원,127.0096267,37.5007158
academy_1288,기한성수학교습소,127.0055318,37.5067454
academy_1289,루미에피아노강남역센터학원,127.028693,37.4929899
academy_1290,반포파인만중등특목관학원,127.0113091,37.5000631
academy_1291,하얀고래미술교습소,126.9839312,37.4806835
academy_1292,입시조소흙미술교습소,127.0216678,37.5087904
academy_1293,창작공간바움연기학원,126.9821765,37.4750098
academy_1294,이화(而貨)큰별음악학원,127.0598003,37.4534599
academy_1295,배종옥연기학원,127.0107782,37.5025816
academy_1296,서초티오티(TOT)반포3관학원,127.0109089,37.5021051
academy_1297,반석수학학원반포관학원,127.0098927,37.5071155
academy_1298,고릴라홍익미술교습소,127.0598003,37.4534599
academy_1299,방배이수독서논술교습소,126.9852159,37.4818389
academy_1300,서래아트미술교습소,126.9880473,37.4957393
academy_1301,반포파인만고등1관학원,127.0012576,37.5058083
academy_1302,로비건채식요리학원,127.0391474,37.4757932
academy_1303,뮤직아이음악교습소,127.0035592,37.5087922
academy_1304,루카영어교습소,127.0014445,37.5096033
academy_1305,르메이어발레학원,127.0105381,37.5027778
academy_1306,배블영어학원,127.0184822,37.4972486
academy_1307,러닝어취브수학학원,127.0598003,37.4534599
academy_1308,바이민프랩학원,127.0286675,37.4923319
academy_1309,리드101서초학원,127.0101216,37.5034862
academy_1310,본스타보컬학원,127.0173142,37.5164762
academy_1311,방쌤혜윰수학교습소,127.0100772,37.5162716
academy_1312,비비엘아트미술학원,126.9864884,37.49059
academy_1313,올탑수학교습소,126.9985038,37.4994326
academy_1314,나무아트미술교습소,127.0154635,37.5178575
academy_1315,아인바이올린교습소,127.0184822,37.4972486
academy_1316,집공자닷컴원격학원,127.0101396,37.5029817
academy_1317,반포제시카영어교습소,127.0087853,37.5010511
academy_1318,으뜸국어논술학원,127.0217403,37.5015015
academy_1319,서초우솔아카데미수학교습소,127.0220521,37.4584969
academy_1320,조성은면접스피치화술교습소,126.9829915,37.4774407
academy_1321,타운영어교습소,127.0141834,37.5154139
academy_1322,수학박사수학교습소,127.0014445,37.5096033
academy_1323,파인만영재고센터학원,127.0010156,37.5061397
academy_1324,창작공방키노게이트학원,126.984071,37.492074
academy_1325,이상수학학원,126.9841788,37.4874525
academy_1326,JL바이올린음악교습소,127.0194018,37.4961119
academy_1327,나무수학교습소,127.0115158,37.5144095
academy_1328,차이(CHAI)미술교습소,127.0194018,37.4961119
academy_1329,발레드퍼스티지이화무용학원,127.0008014,37.5043898
academy_1330,뉴파인영재관학원,127.0096267,37.5007158
academy_1331,새플링영어교습소,127.0008014,37.5043898
academy_1332,플랫나인보컬학원,127.0009546,37.4784589
academy_1333,세인트폴서초학원,127.0112265,37.5003237
academy_1334,나이스수학교습소,127.0200648,37.4635353
academy_1335,수학의길학원,127.0259319,37.4922553
academy_1336,파인만영재고센터금정관학원,127.0010156,37.5061397
academy_1337,라임잉글리쉬학원,127.0118486,37.5003199
academy_1338,퍼스트영어학원,127.0044932,37.4818858
academy_1339,메가매쓰(Mega math)수학교습소,127.0021861,37.5057261
academy_1340,키스톤영어교습소,126.9831773,37.4895974
academy_1341,제이엘영어학원,127.0228234,37.4860845
academy_1342,산연기학원,127.0183223,37.5146465
academy_1343,우암현수학교습소,127.0253957,37.4708599
academy_1344,우면현수학교습소,127.0253957,37.4708599
academy_1345,강남파고다학원5학원,127.0262296,37.4998086
academy_1346,강남파고다외국어학원6학원,127.0262296,37.4998086
academy_1347,강남파고다외국어학원7학원,127.0262296,37.4998086
academy_1348,김영편입의약대전문관학원,127.0286073,37.4934938
academy_1349,해커스어학원강남제4별관학원,127.025536,37.5001002
academy_1350,제2강남메가스터디학원,127.0140309,37.4865881
academy_1351,lHH133수학교습소,127.0109089,37.5021051
academy_1352,샤오나중국어교습소,127.0143407,37.5197943
academy_1353,물맷돌수학원격학원,127.0281389,37.4947334
academy_1354,클샘수학교습소,127.0034252,37.506106
academy_1355,프로기원격학원,127.0089237,37.4880141
academy_1356,리더스원음악학원,127.0277116,37.4910536
academy_1357,문준영영어학원,127.0043609,37.4824883
academy_1358,메가스터디대입컨설팅센터학원,127.0148132,37.4933165
academy_1359,반석수학잠원관학원,127.0073272,37.5137977
academy_1360,반포바른미술학원,127.011455,37.5018664
academy_1361,서초와이즈리더영어독서전문학원,127.024887,37.4917331
academy_1362,제이케이(JK)영재학원,127.0104765,37.5023088
academy_1363,디앤엘(DNL)수학학원,127.0138644,37.4966695
academy_1364,예당미술교습소,127.0090872,37.483339
academy_1365,윤수학학원,127.0095874,37.4985529
academy_1366,김수정수학교습소,127.0021861,37.5057261
academy_1367,논술화랑서초학원,127.0096267,37.5007158
academy_1368,수미사플러스학원,126.9834848,37.4911048
academy_1369,강남정일라이브러리독서실,127.0170027,37.4919201
academy_1370,제이엘학원,126.9851481,37.4860102
academy_1371,피비이씨(PBEC)과학교습소,127.0055318,37.5067454
academy_1372,이투스투포세븐독서실,127.0174069,37.4938697
academy_1373,메가스터디게임아카데미학원,127.0250122,37.5012402
academy_1374,대치메이드반포점학원,127.0104685,37.5012004
academy_1375,개념상상서초관학원,127.0107782,37.5025816
academy_1376,최종수학교습소,127.0047957,37.4812486
academy_1377,솔바이올린학원,127.0153481,37.4939156
academy_1378,웅진씽크빅학습센터우면학원,127.0255795,37.464536
academy_1379,강남종로교대독서실,127.0175491,37.4933753
academy_1380,이광희수학교습소,127.0104685,37.5012004
academy_1381,블리스발레아카데미(BLISS Ballet Academy)학원,127.0277116,37.4910536
academy_1382,박지용영어학원,127.0072892,37.5072738
academy_1383,윤소진바이올린교습소,127.0146492,37.5152647
academy_1384,서초학원3관학원,127.0110704,37.5010072
academy_1385,반포파인만의치대관학원,127.0115643,37.5012907
academy_1386,굿스트링아카데미음악학원,127.0135637,37.4834215
academy_1387,강남대성별관퀀텀라이브러리독서실,127.0144618,37.4925206
academy_1388,파머스영어학원,127.0259319,37.4922553
academy_1389,케이플루트음악교습소,127.0021861,37.5057261
academy_1390,남미숙중국어강남학원,127.0250122,37.5012402
academy_1391,스루밍아카데미고양이미용학원,127.0158114,37.4818815
academy_1392,반포래미안해법수학교습소,126.9956953,37.5030941
academy_1393,브릴란떼창의음악예술학원,126.9962655,37.4824649
academy_1394,프로기A원격학원,127.0089237,37.4880141
academy_1395,수학에미친사람들서초1학원,127.0075413,37.4831008
academy_1396,올리브잉글리쉬영어교습소,127.0252657,37.4704173
academy_1397,공간가치건축학원,127.0386223,37.4823576
academy_1398,피엘에이(PLA)수학교습소,126.9910431,37.4747975
academy_1399,올리브수학교습소,126.9842156,37.4872366
academy_1400,블루북스리딩서초서이센터학원,127.0252586,37.4918533
academy_1401,에버댄스스포츠아카데미학원,127.0291892,37.486975
academy_1402,예꼴아트스튜디오(Yeccol Art Studio)학원,126.9922938,37.4826834
academy_1403,시사저널실무교육센터학원,127.0184318,37.5140617
academy_1404,RVD입시컨설팅학원,126.9938654,37.4885896
academy_1405,김소연과학교습소,127.0111962,37.5017651
academy_1406,스튜디오(STUDIO)선율음악교습소,127.0591276,37.4548242
academy_1407,한소리국악원교습소,126.9821765,37.4750098
academy_1408,체리군단영어학원,127.0059872,37.4800692
academy_1409,서이클라리넷교습소,127.0259319,37.4922553
academy_1410,이화라엘음악교습소,127.0217403,37.5015015
academy_1411,그림담미술교습소,127.0141834,37.5154139
academy_1412,리드101서이영어학원,127.0277116,37.4910536
academy_1413,에이블수학교습소,126.9835143,37.4872576
academy_1414,레브빈바이올린스튜디오음악교습소,127.0217403,37.5015015
academy_1415,티엘영어학원,127.0252586,37.4918533
academy_1416,서초크라센방배고등관영어학원,127.0038922,37.4828718
academy_1417,서초발레캐슬아카데미학원,127.0253341,37.4642817
academy_1418,그림정원미술교습소,126.9898821,37.4946918
academy_1419,삼성영어서일영어교습소,127.0217082,37.4848859
academy_1420,한우리독서토론반포4동논술교습소,126.9979132,37.4996258
academy_1421,조소오픈챙튜디오미술교습소,127.0418359,37.4795094
academy_1422,반포세정스카이관학원,127.0009109,37.506364
academy_1423,e오일러수학교습소,126.9839268,37.4910275
academy_1424,박정인영어교습소,127.0021861,37.5057261
academy_1425,뉴톤제스학원,127.0008014,37.5043898
academy_1426,두개세개아동미술교습소,127.0277116,37.4910536
academy_1427,리드인서초우면점독서논술교습소,127.0255795,37.464536
academy_1428,노정현수학교습소,127.0217007,37.4655132
academy_1429,김대장수학교습소,127.0008014,37.5043898
academy_1430,와이즈만영재입시센터서초학원,127.011213,37.5004858
academy_1431,라곰플루트교습소,127.0277116,37.4910536
academy_1432,강한수학학원,126.9862549,37.4861098
academy_1433,리드인서초내곡포레스타논술교습소,127.0599746,37.4566871
academy_1434,멘토링영어교습소,126.9880473,37.4957393
academy_1435,스마트해법서초플래그십학원,127.0277116,37.4910536
academy_1436,우승희영어학원,127.0101926,37.5023965
academy_1437,입시왕아카데미학원,127.0211515,37.4868275
academy_1438,어셔어학원제1별관학원,127.0226643,37.5052305
academy_1439,에그본학원,127.0139482,37.5066358
academy_1440,아우름영어교습소,127.0034252,37.506106
academy_1441,메타인프렙입시컨설팅학원,127.0085396,37.4914078
academy_1442,필즈더클래식서초센터학원,127.0104685,37.5012004
academy_1443,삼성영어셀레나서초우면학습관영어교습소,127.0255795,37.464536
academy_1444,심포니발레교습소,127.0217403,37.5015015
academy_1445,반석수학신동관학원,127.0154635,37.5178575
academy_1446,리베플루트교습소,127.0120964,37.5029711
academy_1447,피나클(Pinnacle)학원,126.9963195,37.4843395
academy_1448,큐싸이언스학원,127.0104593,37.5018941
academy_1449,까사데이밤비니서초학원,126.9936916,37.4889035
academy_1450,토토발레교습소,127.000179,37.478119
academy_1451,발레뜨망학원,126.9903878,37.4924074
academy_1452,백오클래스학원,126.9824887,37.4770038
academy_1453,잠원파인만학원,127.0010156,37.5061397
academy_1454,미엘린(MYELIN)학원,127.009365,37.5033987
academy_1455,수학전문짱솔학원,127.0090871,37.503892
academy_1456,라이프어학원,127.0106037,37.5020936
academy_1457,이영민피아노교습소,127.0190881,37.498479
academy_1458,로이샘영어교습소,127.0094136,37.4834499
academy_1459,더국악교습소,127.0141834,37.5154139
academy_1460,씨리얼영어전문학원,127.0021861,37.5057261
academy_1461,수학을삼키다강남관학원,127.0252586,37.4918533
academy_1462,아르떼뮤직음악교습소,127.0003862,37.4778414
academy_1463,최지연국어논술학원,127.0048897,37.5065508
academy_1464,서초올마이티수학교습소,127.0069353,37.4895923
academy_1465,황쌤수학교습소,126.9956953,37.5030941
academy_1466,코너스톤에듀학원,127.0394242,37.4718308
academy_1467,연세뮤직아카데미학원,127.0458525,37.4721802
academy_1468,웨스트민스터영어학원,126.9846405,37.4875916
academy_1469,수학의탑수학교습소,126.9863228,37.4877773
academy_1470,빅토리(Victory)학원,127.0107782,37.5025816
academy_1471,제이제이영어학원,127.008056,37.5074515
academy_1472,오서진플룻교습소,127.0141834,37.5154139
academy_1473,제네시스수학교습소,127.0034252,37.506106
academy_1474,서초프라임잉글리쉬(Seocho Prime English)영어교습소,126.9975841,37.4861704
academy_1475,뉴파인서초고등관학원,127.0048947,37.4823036
academy_1476,허쌤수학1관학원,126.9979132,37.4996258
academy_1477,조플룻음악교습소,126.9880473,37.4957393
academy_1478,투탑수학관학원,127.0040029,37.482197
academy_1479,씨드학원,127.0250988,37.4710827
academy_1480,서래기타음악교습소,126.9880473,37.4957393
academy_1481,이룸음악교습소,127.0055318,37.5067454
academy_1482,오쌤국어교습소,127.0464189,37.4720857
academy_1483,반포한수위수학교습소,127.0092948,37.5035783
academy_1484,지수학교습소,127.0448779,37.4714695
academy_1485,퍼스트바리스타제과제빵학원,127.0236958,37.5024548
academy_1486,원컴퍼니2020학원,126.9947642,37.4864978
academy_1487,필립컬리짓학원,127.024534,37.4710511
academy_1488,아테네학당논술학원,126.9882964,37.4932005
academy_1489,JYDMC연기학원,127.0166687,37.5148039
academy_1490,영렘브란트서초센터학원,127.0259319,37.4922553
academy_1491,다이노잉글리쉬학원,127.0213015,37.4857295
academy_1492,더드림댄스스튜디오학원,127.0355523,37.4836932
academy_1493,한올국어학원,126.9831342,37.4919398
academy_1494,조스영어(Jo's 영어)교습소,127.0072892,37.5072738
academy_1495,신나라음악학원,126.9886189,37.4919238
academy_1496,비욘드코딩2관학원,126.9997583,37.4961094
academy_1497,라인아트미술학원,127.0277348,37.4953698
academy_1498,라빈스잉글리쉬프렙(Robin'sEnglishPrep)영어교습소,127.0277116,37.4910536
academy_1499,반포발레아카데미학원,126.9999844,37.4995082
academy_1500,자라다남아미술학원,127.0104456,37.5003622
academy_1501,빅클래스원격교습학원,127.0324159,37.485785
academy_1502,생각하는황소서초4관학원,127.0274116,37.4880236
academy_1503,엔(N)수학교습소,127.0455299,37.4708711
academy_1504,상상로스쿨학원,127.0277135,37.4943965
academy_1505,쌤아카데미원격학원,127.0163103,37.4886705
academy_1506,선별영어학원,127.0221397,37.465661
academy_1507,중심학원,127.0274116,37.4880236
academy_1508,미쌤영어교습소,126.9836728,37.4872409
academy_1509,홀가크리스천아카데미학원,127.025117,37.4705513
academy_1510,베니의키즈잉글리시(Kids English)영어교습소,127.0259319,37.4922553
academy_1511,아르떼에비뉴영어교습소,126.9892717,37.4955065
academy_1512,리오베플라워학원,127.0221665,37.5052444
academy_1513,딥딥잉글리시(DEEPDEEPENGLISH)영어교습소,127.0007482,37.5007491
academy_1514,베리타스원격학원,127.0280393,37.4945614
academy_1515,빅토리아영어교습소,126.983044,37.491083
academy_1516,림박프랑스어학원,127.0193819,37.4950395
academy_1517,페이머스댄스학원,126.9837401,37.4822767
academy_1518,큐매쓰학원,127.0101396,37.5029817
academy_1519,모스톤(mosTone)보컬아카데미학원,126.9967498,37.4817572
academy_1520,이룸아나운서스피치아카데미학원,127.019256,37.5107167
academy_1521,책읽기와글쓰기리딩엠서초사임당학원,127.0252586,37.4918533
academy_1522,멘토학원,127.010234,37.4881152
academy_1523,퍼스트액터스학원,127.0178205,37.4847365
academy_1524,제이포커스잉글리시방배1관학원,126.9899523,37.4928362
academy_1525,연세스트링아카데미학원,127.0104441,37.5004794
academy_1526,아이자라다미술학원,127.0120964,37.5029711
academy_1527,문네프아뜰리에미술교습소,126.9994443,37.4976025
academy_1528,칠삼공수학교습소,127.0121487,37.5024309
academy_1529,마녀쌤영어방배관학원,126.9832768,37.4955992
academy_1530,모데스트플로리스트학원,127.0236958,37.5024548
academy_1531,서초압구정국어논술학원,127.0113091,37.5000631
academy_1532,생각플러스학원,127.0103597,37.5017311
academy_1533,이루다방배어학원,126.9895888,37.4904363
academy_1534,올댓뷰티아카데미입시학원,127.0246315,37.5018138
academy_1535,씨이씨영어학원,127.0141834,37.5154139
academy_1536,디지털첨단수학교습소,126.9892389,37.4929112
academy_1537,이지알랩(EGR lab)영어교습소,127.0055318,37.5067454
academy_1538,밀라노아트스튜디오미술교습소,126.9873943,37.4888227
academy_1539,빅토리영어학원,126.9857764,37.485538
academy_1540,김선희국어대장국어교습소,126.9869203,37.5021451
academy_1541,케이튜터반포수학학원,126.9832776,37.4963742
academy_1542,진수학교습소,127.0123274,37.5017476
academy_1543,봉프앙프렌치아틀리에학원,127.0092948,37.5035783
academy_1544,선앤미색채미술학원,126.9852435,37.4864795
academy_1545,오르다국어교습소,127.0094485,37.4987951
academy_1546,뉴파인반포서경관학원,126.9855662,37.4910506
academy_1547,라엘뮤직앤아트전문학원,126.9845084,37.4873292
academy_1548,딜라이프댄스스포츠(DELife Dance Sports)학원,126.9862387,37.4931648
academy_1549,페인트박스미술학원,127.0252586,37.4918533
academy_1550,메종드피아노교습소,127.0014445,37.5096033
academy_1551,소미끄뷰티더아카데미학원,127.0187258,37.5149292
academy_1552,fx수학교습소,126.9834198,37.491726
academy_1553,즐겁게피아노음악교습소,127.008056,37.5074515
academy_1554,브라가밸리어학원,126.988682,37.4922757
academy_1555,깊은수학교습소,127.0290444,37.4911727
academy_1556,가맹거래사협회교육원원격학원,127.0448006,37.4695497
academy_1557,리드인서초슬기샘신중점독서논술교습소,127.0088648,37.4822018
academy_1558,김지은이화무용학원,126.9984682,37.4995585
academy_1559,아인수학교습소,127.0087853,37.5010511
academy_1560,권선생사회탐구교습소,127.0123274,37.5017476
academy_1561,류진국어교습소,126.9869203,37.5021451
academy_1562,키즈브러시미술학원,126.9846405,37.4875916
academy_1563,키잉글리쉬(키프랩)학원,127.0274116,37.4880236
academy_1564,내곡스마트해법수학교습소,127.0599746,37.4566871
academy_1565,와이키즈서초본원학원,127.0107782,37.5025816
academy_1566,엘학원,127.0224087,37.4658344
academy_1567,레인보우아트미술학원,127.0252586,37.4918533
academy_1568,미문수학교습소,127.0139482,37.5066358
academy_1569,랑바이올린교습소,127.0090872,37.483339
academy_1570,가인서초학종관학원,127.0057322,37.4796886
academy_1571,키마미술학원,127.0178094,37.5140746
academy_1572,마이리틀팔레트미술교습소,127.0272903,37.4886623
academy_1573,서초티오티(TOT)반포2관학원,127.0090871,37.503892
academy_1574,해피맘연기학원,127.0092479,37.4925761
academy_1575,서초한수위수학교습소,127.0034252,37.506106
academy_1576,서이하연과학교습소,127.0259319,37.4922553
academy_1577,디엘르발레학원,126.9893478,37.4932185
academy_1578,소어(soarpiano)피아노교습소,127.0467946,37.4692144
academy_1579,진논술교습소,127.0302009,37.4856858
academy_1580,리드인지인국어학원,127.0101493,37.499675
academy_1581,제이포커스잉글리시방배2관학원,126.9889501,37.4933593
academy_1582,서초이화음악학원,127.0610296,37.4554791
academy_1583,생각하는미술학원,127.0255795,37.464536
academy_1585,리베라입시전문원격학원,127.0408584,37.4852231
academy_1586,서울상문수학전문학원,127.0048125,37.4825372
academy_1587,반포새빛가야금교습소,127.006478,37.5070327
academy_1588,피플음악교습소,127.0275223,37.4646512
academy_1589,등대영어교습소,127.008056,37.5074515
academy_1590,스마트해법수학영어서초방배스마트플레이스학원,126.9966653,37.4838469
academy_1591,뻔fun영어교습소,127.0194018,37.4961119
academy_1592,입시왕아카데미온원격교습학원,127.0153592,37.4879057
academy_1593,독도원격학원,126.9925265,37.4906146
academy_1594,현지연영어교습소,126.9869203,37.5021451
academy_1595,서초베리타스수학학원,127.0236865,37.4970845
academy_1596,3.1영어독립영어교습소,127.0055318,37.5067454
academy_1597,닥터정프라임영어학원,127.0252586,37.4918533
academy_1598,오뜨아뜰리에미술교습소,126.9882964,37.4932005
academy_1599,최홍국어논술학원,127.0072892,37.5072738
academy_1600,오엠지댄스학원,127.0183136,37.5109882
academy_1601,왕연기아카데미학원,127.0177916,37.51457
academy_1602,독한국어원격학원,127.0280393,37.4945614
academy_1603,이룸융합과학교습소,126.9979132,37.4996258
academy_1604,아이이엠(IEM)잉글리시아카데미학원,127.009365,37.5033987
academy_1605,그래머에이펙스영어교습소,127.0236865,37.4970845
academy_1606,매직트리영어교습소,126.9880473,37.4957393
academy_1607,잼코딩서초학원,127.0164628,37.4856623
academy_1608,유에스아이에스(USIS)어학원,127.0233497,37.4934234
academy_1609,움트생각이자라는독서논술교습소,127.0007482,37.5007491
academy_1610,한우리서초2동독서논술교습소,127.0272323,37.487905
academy_1611,고양이피아노교습소,126.9997936,37.4807378
academy_1612,윤빌리티강남점학원,127.0219259,37.5089457
academy_1613,레몬수학교습소,127.010651,37.5010848
academy_1614,개념의신수학교습소,127.0014445,37.5096033
academy_1615,글그리다미술학원,127.0272903,37.4886623
academy_1616,스피치마루지반포센터학원,127.0109089,37.5021051
academy_1617,아이겐수학교습소,127.0060552,37.4826197
academy_1618,이타적인간의이기적공부법2관학원,127.0100401,37.5036657
academy_1619,액터스베이스캠프연기아카데미학원,126.9852118,37.4771264
academy_1620,번잉글리시영어교습소,127.0047957,37.4812486
academy_1621,그림숲아트미술교습소,127.0277116,37.4910536
academy_1622,에이엠비(AMB)자기주도센터학원,126.9853718,37.4978969
academy_1623,에이리스트영어학원,126.99508,37.4848696
academy_1624,코너스톤스팀(Cornerstone STEAM)학원,127.0394271,37.4716056
academy_1625,국제패션디자인학원,127.0184906,37.517342
academy_1626,365필름아트진학상담지도교습소,127.0223273,37.5050565
academy_1627,플로잉아카데미학원,127.0141492,37.4861926
academy_1628,위드미애프터스쿨학원,127.0194018,37.4961119
academy_1629,링키영어방배영어교습소,126.990073,37.4939546
academy_1630,퍼펙트제이댄스스튜디오(Perfect J studio)학원,127.0199892,37.5100109
academy_1631,리엘바이올린음악교습소,127.0272903,37.4886623
academy_1632,이타적인간의이기적공부학원,127.0104885,37.5039668
academy_1633,반포미술아카데미학원,127.0103597,37.5017311
academy_1634,멘토영어교습소,126.9977886,37.4979488
academy_1635,서울유에듀원격학원,127.0375832,37.4840341
academy_1636,빈음악학원,127.0259319,37.4922553
academy_1637,루즈벨트컬리짓서울학원,127.0286285,37.488358
academy_1638,세훈학원,127.0290444,37.4911727
academy_1639,체리쌤창의수학교습소,127.0272903,37.4886623
academy_1640,독학재수현우혁논술학원,127.0194018,37.4961119
academy_1641,에이밍영어교습소,126.9897902,37.4947991
academy_1642,제니에듀케이션학원,127.045429,37.4716993
academy_1643,레벨업수학교습소,126.9977473,37.4993451
academy_1644,메가스터디컴퓨터아카데미강남학원,127.0286073,37.4934938
academy_1645,올라논술교습소,127.0034252,37.506106
academy_1646,아이엘엠(ILM)수학교습소,127.0034252,37.506106
academy_1647,매쓰넛수학학원,127.0112563,37.5023513
academy_1648,어굿스쿨원격학원,127.0411868,37.4816486
academy_1649,뿅과학교습소,127.0094136,37.4834499
academy_1650,클라디반포관학원,127.0090871,37.503892
academy_1651,서원하연과학교습소,127.0120964,37.5029711
academy_1653,리드인국어논술학원,127.0259319,37.4922553
academy_1654,방배바른미술학원,126.9969929,37.4830297
academy_1655,해오름달학원,127.0430746,37.4736986
academy_1656,한라백두수학교습소,127.0048897,37.5065508
academy_1657,탑잉글리쉬학원,127.046314,37.4723372
academy_1658,파리아트마인서초학원,127.0097136,37.5035548
academy_1659,기파랑중등관반포학원,127.0113838,37.5021181
academy_1660,서리풀고등관학원,127.0060236,37.4824393
academy_1661,얼티밋커리어그룹학원,127.0129891,37.4901386
academy_1662,세로토닌수학교습소,127.0063598,37.4818114
academy_1663,비이씨영국에듀학원,127.0186909,37.4942678
academy_1664,키투러닝(KEY2LEARNING)학원,127.0174633,37.4999252
academy_1665,토론하는고릴라논술교습소,127.0104685,37.5012004
academy_1666,필즈더클래식원격학원,127.0104685,37.5012004
academy_1667,해커스경영아카데미제1별관독서실,127.0252901,37.4981339
academy_1668,자연수학교습소,126.9853758,37.4817141
academy_1669,로렌스빌아카데미원격학원,127.0135386,37.4956486
academy_1670,리드인(방배으뜸점)독서논술교습소,126.9858162,37.4876108
academy_1671,에스에스아이서초(SSISEOCHO)학원,127.0067351,37.4910413
academy_1672,에스에스아이서초(SSISEOCHO)주니어학원,127.0067351,37.4910413
academy_1673,어소트락게임아카데미학원,127.0197584,37.5034404
academy_1674,생각하는두꺼비수학7관학원,127.0034252,37.506106
academy_1675,에듀코치개별지도서초그랑자이학원,127.0266736,37.4873868
academy_1676,타이니크리에이터미술학원,127.0139482,37.5066358
academy_1677,수능선배학원,127.0287126,37.4932153
academy_1678,음그음악학원,127.0111546,37.4817615
academy_1679,에이프렙원격학원,127.0285595,37.4928176
academy_1680,스텝(Step)수학교습소,127.0143087,37.4946999
academy_1681,미국수학교습소,127.0137474,37.4961099
academy_1682,우수아아트스튜디오미술교습소,126.9843803,37.4825886
academy_1683,새봄국어원격학원,127.0251172,37.4966457
academy_1684,시대인재반포센터5층학원,127.0008014,37.5043898
academy_1685,큐리수학교습소,127.0094136,37.4834499
academy_1686,윤선생우리집앞영어교실서초영어교습소,127.0090872,37.483339
academy_1687,랑상블플루트스튜디오음악교습소,127.0213742,37.4654114
academy_1688,뮤랭아카데미원격학원,127.0224713,37.4861987
academy_1689,스마트보카영어교습소,127.0034252,37.506106
academy_1690,다락방창작학원,127.0183632,37.5149802
academy_1691,아이비펜타원격학원,127.0164812,37.5152979
academy_1692,아이콘수학교습소,127.0141834,37.5154139
academy_1693,아누미술학원,126.985518,37.4787238
academy_1694,뉴파인반포고특별관학원,127.010651,37.5010848
academy_1695,더와이즈리딩학원,127.0249649,37.4639903
academy_1696,튜튜발레별관학원,127.0181009,37.4952811
academy_1697,예종앙볼리발레학원,126.9831016,37.4935073
academy_1698,겟앤씨어학원,127.0113091,37.5000631
academy_1699,핀랩(FINNLAB)국제영어교습소,127.0272903,37.4886623
academy_1700,일심수학학원,126.9862102,37.496949
academy_1701,민선생영어학원,127.0034252,37.506106
academy_1702,서초메가스터디독서실,127.0148132,37.4933165
academy_1703,신태풍영어학원,127.0046736,37.4819233
academy_1704,키즈엔리딩영어교습소,127.000719,37.4783218
academy_1705,101영어교습소,126.9864578,37.4878325
academy_1706,로고스영어전문교습소,126.9845826,37.4910332
academy_1707,갑뮤지컬연기아카데미학원,127.0431909,37.4743303
academy_1708,오늘의공부학원,127.014374,37.4966197
academy_1709,위라이크아트미술교습소,127.0154549,37.4564778
academy_1710,아이비실용음악학원,127.0217811,37.5027093
academy_1711,미래엔초코원격학원,127.0187921,37.5107308
academy_1712,비우미술학원,126.9831016,37.4935073
academy_1713,새샘과학전문학원,127.0077216,37.4831474
academy_1714,아이겐수학반포수학교습소,126.9869203,37.5021451
academy_1715,쥬트서래마을아뜰리에학원,126.9985271,37.4976938
academy_1716,더브릿지학원,126.9827453,37.4889269
academy_1717,수학하다수학교습소,126.9877635,37.496656
academy_1718,패트릭에듀원격학원,127.0192491,37.5121132
academy_1719,서초SCE어학원,127.0115707,37.5016692
academy_1720,리드인방배이수독서논술교습소,126.9854668,37.4800029
academy_1721,리드인독서논술교습소,127.0009618,37.4770714
academy_1722,잠원리드인늘품독서논술교습소,127.0141834,37.5154139
academy_1723,엘에스피어학원,127.0724371,37.4598222
academy_1724,(주)크레버스청담어학원서초제2지점학원,127.0102102,37.5002071
academy_1725,서초해담해금전문교습소,127.0034252,37.506106
academy_1726,잉클링스어학원,126.9980205,37.4966713
academy_1727,교대위드피아노학원,127.010094,37.4910154
academy_1728,서초세종무용학원,126.9871092,37.4764308
academy_1729,톤연기뮤지컬학원,127.0196325,37.5113325
academy_1730,연산수학교습소,127.0100772,37.5162716
academy_1731,희주아트센터미술교습소,126.9975841,37.4861704
academy_1732,아르떼뮤직학원,126.996292,37.4847087
academy_1733,한우리서초잠원논술교습소,127.0100772,37.5162716
academy_1734,아지트(AZIT)국어교습소,127.034104,37.4741122
academy_1735,자람영재수학학원,127.0011202,37.5059333
academy_1737,하우솔교육센터원격학원,127.0353314,37.4841689
academy_1738,니즈수학교습소,127.0194018,37.4961119
academy_1739,꽃필무렵국어교습소,126.983044,37.491083
academy_1740,머니테라피원격학원,127.0163103,37.4886705
academy_1741,양재도담수학교습소,127.0415906,37.4836702
academy_1742,리치스쿨학원,126.9870877,37.4771875
academy_1743,블루플랜학원,127.0044547,37.4822368
academy_1744,무지개키즈한자교습소,126.9896609,37.4951584
academy_1745,수학싸부원격학원,127.0595123,37.4566024
academy_1746,애플과학학원,127.0048897,37.5065508
academy_1747,쏭즈캠퍼스원격학원,127.028693,37.4929899
academy_1748,종로기술사사당분원학원,126.9871092,37.4764308
academy_1750,섭샘수학교습소,127.0104685,37.5012004
academy_1751,한백학원,127.0259319,37.4922553
academy_1752,모자이크메이크업아카데미메이크업교습소,127.0191297,37.5108598
academy_1753,아뜰리에아벡누학원,127.0310539,37.4853053
academy_1754,고릴라수학교습소,126.990073,37.4939546
academy_1755,옥토퍼스학원,127.0455145,37.4720874
academy_1756,온뮤직실용음악학원,127.036136,37.475228
academy_1757,스피치라운지학원,127.0184014,37.5120611
academy_1758,아이셀프수학교습소,127.0259319,37.4922553
academy_1759,리만수학교습소,127.0259319,37.4922553
academy_1760,투영맨엘셋(LSAT)원격학원,127.0084389,37.4930379
academy_1761,최쌤수학교습소,127.0232419,37.4617505
academy_1762,빌리발레스튜디오학원,127.0129989,37.4816598
academy_1763,천년의미소S클래스미술학원,126.996834,37.4830734
academy_1764,어썸보컬학원,127.030523,37.4852649
academy_1765,오늘발레스튜디오학원,127.0217689,37.5045113
academy_1766,누나영아카데미원격학원,127.0279529,37.4951193
academy_1767,아트클라슈학원,127.0402878,37.4732525
academy_1768,취소,126.9880473,37.4957393
academy_1769,리드인방배서래초점논술교습소,126.9880473,37.4957393
academy_1770,상운수학학원,127.0259319,37.4922553
academy_1771,프리픽스무브먼트학원,127.0184661,37.5105749
academy_1772,프리픽스무브먼트제2관학원,127.0184661,37.5105749
academy_1773,메타바둑교습소,127.0174633,37.4999252
academy_1774,서초사고력수학교습소,127.0272903,37.4886623
academy_1775,교대기술사학원,127.0134155,37.4903944
academy_1776,카네기영어창의코딩학원,127.0105586,37.5037962
academy_1777,수학의답학원,127.0072892,37.5072738
academy_1778,점프셈주산수학교습소,127.0087853,37.5010511
academy_1779,원네스트원격학원,127.0290444,37.4911727
academy_1780,비에프스쿨학원,127.0266736,37.4873868
academy_1781,마인드영어교습소,127.0448779,37.4714695
academy_1782,박정규과학연구소원격학원,126.9864195,37.4981942
academy_1783,어피셜원격학원,127.0286243,37.4948005
academy_1784,아키차일드학원,126.9943686,37.4923873
academy_1785,엘리하이키즈원격학원,127.0191596,37.4860992
academy_1786,엘리하이원격학원,127.0191596,37.4860992
academy_1787,이메진(IMAGEN)영어교습소,127.0277116,37.4910536
academy_1788,이지아카데미원격학원,126.9940557,37.4853655
academy_1789,탑과학교습소,127.0143407,37.5197943
academy_1790,커뮤니케이션티움학원,126.9824439,37.4844731
academy_1791,아람국어교습소,126.9906615,37.4930766
academy_1792,연음뮤직스튜디오음악교습소,127.0272903,37.4886623
academy_1793,승승장구수학학원,127.0120964,37.5029711
academy_1794,신수학교습소,127.010651,37.5010848
academy_1795,그로우플래닛영어교습소,126.9894806,37.4925979
academy_1796,동제편입원격학원,127.0280393,37.4945614
academy_1797,카멜의숲미술학원,126.990073,37.4939546
academy_1798,열린아카데미원격학원,127.0196515,37.4951769
academy_1799,잼(JAM)아카데미학원,127.0553559,37.4482614
academy_1800,에쓰디씨1학원,126.985739,37.4908178
academy_1801,융합인재학원,127.0007482,37.5007491
academy_1802,에쓰디씨2학원,126.9853518,37.4910127
academy_1803,사우(師友)국어교습소,127.0448779,37.4714695
academy_1804,리드인신반포점독서논술교습소,126.9956953,37.5030941
academy_1805,퍼펙트제이댄스스튜디오글로벌센터학원,127.0199892,37.5100109
academy_1806,수엑터레슨연기학원,127.0315247,37.4873726
academy_1807,더로사(The Rosa)영어교습소,127.0272323,37.487905
academy_1808,교대타임독학재수학원,127.0187201,37.4954935
academy_1809,엠에이치(MH)수학교습소,127.0021861,37.5057261
academy_1810,에스비씨어학원,127.0142921,37.4813372
academy_1811,메이커뮤직음악교습소,127.0072892,37.5072738
academy_1812,나비아트폴리오미술학원,127.0101493,37.499675
academy_1813,더수학교습소,126.9990577,37.4799656
academy_1814,대치서영우국어교습소,127.0072892,37.5072738
academy_1815,리드인서초반원초점논술교습소,127.0072892,37.5072738
academy_1816,오수학교습소,126.9926218,37.4860471
academy_1817,링크아카데미학원,127.0305802,37.4887164
academy_1818,연세하모니성악교습소,127.0139482,37.5066358
academy_1819,비상수학교습소,127.0259319,37.4922553
academy_1820,당근자판기원격평생직업교육학원,127.0249318,37.4961216
academy_1821,빅루트아카데미연기학원,127.0210341,37.4845559
academy_1822,엘로이피아노교습소,127.0184822,37.4972486
academy_1823,길포드아카데미학원,127.0389752,37.4812882
academy_1824,비발디음악학원,127.0018385,37.5046509
academy_1825,매직피아노학원,127.0018385,37.5046509
academy_1826,반포세빛스즈키바이올린음악학원,127.0018385,37.5046509
academy_1827,프리매쓰원격학원,127.0422534,37.4751516
academy_1828,리피치원격학원,127.0281389,37.4947334
academy_1829,그림화원성인취미미술학원,126.9837928,37.4783846
academy_1830,오라수학학원,127.0103597,37.5017311
academy_1831,서초크라센방배고등2관영어학원,127.0044932,37.4818858
academy_1832,레드펭귄미술학원,127.022326,37.4912795
academy_1833,서초방배소마학원,126.9860171,37.4978484
academy_1834,꼼꼼영어교습소,127.0034252,37.506106
academy_1835,한선영어학원,127.0102102,37.5002071
academy_1836,더베스트영어학원,127.0461563,37.4722908
academy_1837,배우앤배움입시센터학원,127.0197213,37.5088734
academy_1838,배우앤배움하이틴센터학원,127.0197213,37.5088734
academy_1839,이화아트레브신반포미술교습소,127.0130338,37.518531
academy_1840,헤세드영재학원,126.9979809,37.4962475
academy_1841,연세수秀과학교습소,127.0034252,37.506106
academy_1842,시드학원,127.0158756,37.4916404
academy_1843,진선생제2관영어학원,127.0104593,37.5018941
academy_1844,아샘수학교습소,127.0055318,37.5067454
academy_1845,에듀플렉스에듀코치개별지도방배학원,126.9938654,37.4936535
academy_1846,인벤션음악교습소,126.9857966,37.4873943
academy_1847,멘토스국어논술학원,126.9871016,37.4862071
academy_1848,위드유영어(WithUEnglish)전문학원,126.9838364,37.4885218
academy_1849,김종철국어수학전문학원,127.0041915,37.4824689
academy_1850,이베스트영어학원,126.9928708,37.4877162
academy_1851,예음음악교습소,127.012073,37.5021689
academy_1852,이희정영어학원,127.0072892,37.5072738
academy_1853,반석수학학원,127.0105073,37.5128242
academy_1854,해커스어학원강남제5별관학원,127.0245637,37.5009392
academy_1855,피보나치수학교습소,127.0269048,37.4878662
academy_1856,방배바이올린교습소,126.9858162,37.4876108
academy_1857,이레음악교습소,126.9857458,37.4819516
academy_1858,엔트런스뮤직실용음악학원,127.0193362,37.48556
academy_1859,테스(TESSEnglish)영어교습소,127.0034252,37.506106
academy_1860,허쌤수학학원,126.9901596,37.5017944
academy_1861,더체인지수학교습소,127.0087853,37.5010511
academy_1862,무토스미술교습소,127.0087853,37.5010511
academy_1863,엘리스유아전문발레학원,126.9853365,37.4979957
academy_1864,리더스학원,126.9967182,37.4824327
academy_1865,송윤진피아노교습소,127.012073,37.5021689
academy_1866,그린아이미술교습소,127.0190881,37.498479
academy_1867,강남파고다외국어학원,127.0262296,37.4998086
academy_1868,아발론랭콘서초어학학원,127.0104593,37.5018941
academy_1869,춤추는별미술학원,126.992204,37.4868455
academy_1870,수학페이지학원,127.0174633,37.4999252
academy_1871,애니킴영어수학전문학원,127.0466399,37.472493
academy_1872,매쓰큐보습학원,127.0112172,37.5010265
academy_1873,뉴탑보습학원,127.0086077,37.4879664
academy_1874,장한보습학원,127.0259319,37.4922553
academy_1875,체리군단국어논술학원,127.0061031,37.4798539
academy_1876,마녀쌤영어학원,126.9871492,37.5011109
academy_1877,에스이에이어학학원,127.0104411,37.5007046
academy_1878,아띠화실미술교습소,127.0088734,37.513207
academy_1879,바우뫼보습학원,127.0252657,37.4704173
academy_1880,한스영어학원,126.9853365,37.4979957
academy_1881,상위권수학본원학원,127.0011202,37.5059333
academy_1882,한뉘수학학원,127.0217811,37.5027093
academy_1883,한동원영어전문학원,126.9851482,37.49102
academy_1884,카논영어전문학원,127.0064253,37.4828481
academy_1885,유철환영어전문학원,126.9888522,37.5014589
academy_1886,이닷스프릿어학학원,127.0099953,37.4890683
academy_1887,잉코어보습학원,127.0011202,37.5059333
academy_1888,반포시매쓰학원,127.0104411,37.5007046
academy_1889,서초대광보습학원,127.0184822,37.4972486
academy_1890,영수전문지앤지학원,126.9857966,37.4873943
academy_1891,이화소리숲피아노교습소,127.0155471,37.5209668
academy_1892,송림학원,127.0012576,37.5058083
academy_1893,엠코에듀학원,126.9845084,37.4873292
academy_1894,페르마수학보습학원,126.9972605,37.4824643
academy_1895,김수희과학방배지점학원,127.0057527,37.481554
academy_1896,발자국소리가큰아이들미술학원,126.9972299,37.4991335
academy_1897,마스터수학교습소,126.9850255,37.4791972
academy_1898,이후미술학원,127.0104885,37.5039668
academy_1899,양재예솔미술교습소,127.0448779,37.4714695
academy_1900,지엠미술교습소,127.0103877,37.5021819
academy_1901,오종기수학학원,127.0011202,37.5059333
academy_1902,와이스톤인터내셔널어학원,127.0101396,37.5029817
academy_1903,이디엠어학원,127.0246405,37.501994
academy_1904,서초에스엘피어학원,127.0090871,37.503892
academy_1905,국제금융회계학원,127.0192626,37.494651
academy_1906,베리잉글리시(Berry English)학원,127.0061031,37.4798539
academy_1907,라사라패션디자인학원,127.0233228,37.5059117
academy_1908,이승희수학교습소,127.0014445,37.5096033
academy_1909,레몬트리음악교습소,126.9879554,37.4866199
academy_1910,삼성피아노교습소,127.0190881,37.498479
academy_1912,나무영어교습소,127.0044932,37.4818858
academy_1913,우듬지오름학원,127.0055318,37.5067454
academy_1914,아이쥐에스이윤선생서초학원,127.0088271,37.4833459
academy_1915,반포아카데미학원,126.9830157,37.4915062
academy_1916,프레지던트학원,127.0466399,37.472493
academy_1917,서초메가스터디학원,127.0148132,37.4933165
academy_1918,노블영어학원,127.0174633,37.4999252
academy_1919,해커스편입학원,127.025536,37.5001002
academy_1920,현문학원,127.0104411,37.5007046
academy_1921,대한건축아카데미학원,127.0112799,37.4911244
academy_1922,카이스건축토목학원,127.012225,37.4923488
academy_1923,대한논리논술학원,127.006478,37.5070327
academy_1924,아이뮤직음악교습소,126.9850255,37.4791972
academy_1925,서초청담어학원,127.0102675,37.5010005
academy_1926,아마데우스음악학원,126.9910431,37.4747975
academy_1927,엠에스(MS)수학과학전문학원,127.0038922,37.4828718
academy_1928,수리초중수학교습소,127.006478,37.5070327
academy_1929,집현전국어논술교습소,127.0014445,37.5096033
academy_1930,디엠아이학원,127.0095874,37.4985529
